id,site_addr,addr_str,addr_num,addr_zip,latitude,longitude,fips
F_674829_2990724,75 DRUMMER RD REAR,DRUMMER RD REAR,75,01720,42.45467778232662,-71.43084669211667,250173631043000
F_668546_2992616,113 MAIN STREET-BESIDE,MAIN STREET-BESIDE,113,01720,42.45988103535687,-71.45412458340428,250173631043010
F_668388_2992643,1 MAPLE STREET,MAPLE STREET,1,01720,42.45995535471801,-71.45471004764275,250173632013028
F_668156_2992640,1 MAPLE ST,MAPLE ST,1,01720,42.45994745756711,-71.45556980146843,250173632013028
F_669291_2992765,5 RIVER ST REAR,RIVER ST REAR,5,01720,42.460288756937246,-71.45136344305904,250173631041041
F_669110_2992759,5 RIVER ST,RIVER ST,5,01720,42.46027257426066,-71.45203421078801,250173631041041
F_679759_2995417,323 SCHOOL ST,SCHOOL ST,323,01720,42.46754289172794,-71.41256075300102,250173631042051
F_678449_2995885,316 SCHOOL ST,SCHOOL ST,316,01720,42.46883065750225,-71.41741426700519,250173631042049
F_677177_2996021,96 MASS AV,MASS AV,96,01720,42.46920712184783,-71.42212825894634,250173631042049
F_676400_2996129,68  HOSMER ST,HOSMER ST,68,01720,42.46950538224163,-71.42500774290404,250173631042049
F_676751_2996857,MASS AV,MASS AV,nan,01720,42.47150214527582,-71.42370439353049,250173631042032
F_676248_2996980,135 MASS AV,MASS AV,135,01720,42.471840874172166,-71.4255683587744,250173631042032
F_677253_2996833,99 MASS AV,MASS AV,99,01720,42.471435042631406,-71.42184381852688,250173631042032
F_676097_2996956,60 HOSMER ST,HOSMER ST,60,01720,42.47177537888739,-71.42612811839226,250173631042032
F_680885_2996801,66 WETHERBEE ST REAR,WETHERBEE ST REAR,66,01720,42.47133731695677,-71.40838200122323,250173631021023
F_681117_2996874,25 KEEFE RD BEHIND,KEEFE RD BEHIND,25,01720,42.471536940387885,-71.40752180525423,250173631021025
F_680308_2996723,58 WETHERBEE ST,WETHERBEE ST,58,01720,42.47112496739495,-71.41052094168934,250173631042043
F_670985_2997470,332 MASS AV,MASS AV,332,01720,42.47319637444868,-71.44507453970465,250173631041007
F_670750_2998742,349 MAIN ST REAR,MAIN ST REAR,349,01720,42.47668712517796,-71.44594259967941,250173631044007
F_668852_3000242,68 HAYWARD RD,HAYWARD RD,68,01720,42.48080617275741,-71.4529750263191,250173632021014
F_669132_3000187,66 HAYWARD RD,HAYWARD RD,66,01720,42.48065482598377,-71.45193717161737,250173632021014
F_668660_3002772,60 WASHINGTON DR REAR,WASHINGTON DR REAR,60,01720,42.48774870642991,-71.45368168393132,250173631031023
F_676989_3006722,600 MAIN ST,MAIN ST,600,01720,42.49857081421646,-71.42278915102291,250173631031015
F_676289_3007512,592 MAIN ST REAR,MAIN ST REAR,592,01720,42.50074025110293,-71.42538224209822,250173631031015
F_676003_3007595,592 MAIN ST REAR,MAIN ST REAR,592,01720,42.50096868125588,-71.42644252308831,250173631031015
F_676321_2995765,70 HOSMER ST,HOSMER ST,70,01720,42.46850676347213,-71.42530172763053,250173631042049
M_162852_937453,RINDGE RD,RINDGE RD,nan,01430,42.68677576932768,-71.95328094619568,250277001005014
M_164065_935782,HARRIS RD,HARRIS RD,nan,01430,42.671790706474624,-71.93837536046995,250277001001040
M_164166_936292,HARRIS RD,HARRIS RD,nan,01430,42.67638634006732,-71.93717515858594,250277001001040
M_164417_935774,HARRIS RD,HARRIS RD,nan,01430,42.67173489686543,-71.93408084824507,250277001001055
M_164244_932967,COUGHLIN RD,COUGHLIN RD,nan,01430,42.64645850621964,-71.93601621585805,250277001005055
M_162524_932705,WINCHENDON RD,WINCHENDON RD,nan,01430,42.644018938305095,-71.95697275058784,250277001005068
M_162664_931328,OLD COUNTY RD,OLD COUNTY RD,nan,01430,42.63162993844424,-71.95517605693361,250277001004004
M_162508_931271,OLD COUNTY RD,OLD COUNTY RD,nan,01430,42.63110931435275,-71.95707414667342,250277001005090
M_162646_931466,OLD COUNTY RD,OLD COUNTY RD,nan,01430,42.63287135017276,-71.95540447943114,250277001005068
M_163774_932089,SOUTHWESTERLY PRT,SOUTHWESTERLY PRT,nan,01430,42.63853299443184,-71.9416919518052,250277001005064
M_163476_931303,OLD TURNPIKE RD,OLD TURNPIKE RD,nan,01430,42.631443471654265,-71.94527527558094,250277001005064
M_163146_930798,OLD TURNPIKE RD,OLD TURNPIKE RD,nan,01430,42.6268818751666,-71.9492659052037,250277001004004
M_162441_930538,LAKE WAMPANOAG,LAKE WAMPANOAG,nan,01430,42.62450760208764,-71.95784297815327,250277001005090
M_162425_930785,LAKE WAMPANOAG,LAKE WAMPANOAG,nan,01430,42.62673032807509,-71.95805418288946,250277001005093
M_162294_930993,LAKE WAMPANOAG,LAKE WAMPANOAG,nan,01430,42.628596403215255,-71.959664758452,250277001005092
M_162784_930971,OLD TURNPKE RD,OLD TURNPKE RD,nan,01430,42.6284219756814,-71.95368997342932,250277001005092
M_164094_928334,OFF MURRAY RD,OFF MURRAY RD,nan,01430,42.60474517260052,-71.93755550333361,250277001004029
M_164224_927946,MURRAY ROAD,MURRAY ROAD,nan,01430,42.60125835227654,-71.93594716722764,250277001004029
M_165486_928526,WESTMINSTER ST,WESTMINSTER ST,nan,01430,42.60653661120483,-71.9206042159231,250277001004022
M_164968_928968,132 WILLIAMS RD,WILLIAMS RD,132,01430,42.61049236582337,-71.92694366976359,250277001004002
M_161627_932367,OLD TURNPIKE RD,OLD TURNPIKE RD,nan,01430,42.64093249408296,-71.96788771409902,250277001005082
M_161834_932290,OLD COUNTY RD,OLD COUNTY RD,nan,01430,42.64024953612683,-71.9653586601802,250277001005082
M_166076_935088,HASTINGS RD,HASTINGS RD,nan,01430,42.665633807227806,-71.9138022551933,250277001001055
M_166277_935545,EAST S LINCOLN POND,EAST S LINCOLN POND,nan,01430,42.66975644069506,-71.91137739631947,250277001001055
M_164726_936140,HARRIS RD,HARRIS RD,nan,01430,42.67504368763579,-71.93033391412465,250277001001055
M_165899_935518,OFF HARRIS RD,OFF HARRIS RD,nan,01430,42.6694968855912,-71.91598683304417,250277001001055
M_166170_936654,OFF STOWELL RD,OFF STOWELL RD,nan,01430,42.679734903508106,-71.91274810232207,250277001001055
M_165794_936662,STOWELL RD,STOWELL RD,nan,01430,42.67979044884182,-71.91733595272348,250277001001055
M_165201_936898,HARRIS RD,HARRIS RD,nan,01430,42.68188854854579,-71.92458516137603,250277001001055
M_165086_936300,HASTINGS RD,HASTINGS RD,nan,01430,42.67650025784685,-71.92595182583256,250277001001055
M_166702_939737,RINDGE STATE RD,RINDGE STATE RD,nan,01430,42.70751061773044,-71.90643668653603,250277001001000
M_167150_939722,OFF RINDGE STATE RD,OFF RINDGE STATE RD,nan,01430,42.70739467774593,-71.90096760149166,250277001001000
M_167379_937711,RINDGE STATE RD,RINDGE STATE RD,nan,01430,42.68930162154404,-71.89805791334902,250277001001022
M_167471_939055,OFF RINDGE STATE RD,OFF RINDGE STATE RD,nan,01430,42.70140397513311,-71.89701163340911,250277001001000
M_167927_938662,RINDGE STATE RD,RINDGE STATE RD,nan,01430,42.69788522198481,-71.89142428848895,250277001001000
M_166920_938404,OLD PIERCE RD,OLD PIERCE RD,nan,01430,42.69552049298917,-71.90369880287986,250277001001022
M_166817_937849,OLD PIERCE RD,OLD PIERCE RD,nan,01430,42.69052006625948,-71.9049236130532,250277001001022
M_166999_938829,RINDGE STATE RD,RINDGE STATE RD,nan,01430,42.699349639672256,-71.90275921427168,250277001001000
M_161800_932983,WINCHENDON RD,WINCHENDON RD,nan,01430,42.646486229239,-71.96581935994358,250277001005068
M_166871_937275,STOWELL RD,STOWELL RD,nan,01430,42.68535529647386,-71.90423148021598,250277001001022
M_168019_936710,ASHBY RD,ASHBY RD,nan,01430,42.68031735258083,-71.89019254361439,250277001001022
M_168211_936288,ASHBY RD,ASHBY RD,nan,01430,42.67652642963348,-71.88782661964424,250277001001029
M_167838_933628,KELTON RD,KELTON RD,nan,01430,42.6525658937429,-71.89222793787731,250277001002014
M_169535_936608,OLD ASHBY RD,OLD ASHBY RD,nan,01430,42.67946010690012,-71.87169100665722,250277001002007
M_169988_936775,OLD ASHBY RD,OLD ASHBY RD,nan,01430,42.68098106455494,-71.86617295418291,250277001002007
M_170020_936993,OLD ASHBY RD,OLD ASHBY RD,nan,01430,42.68294471681542,-71.8657939371726,250277001002008
M_166177_931769,79 MAIN ST,MAIN ST,79,01430,42.63576065259325,-71.91237455653685,250277001003014
M_162404_939142,EAST RINDGE RD,EAST RINDGE RD,nan,01430,42.70195829257927,-71.95885821831433,250277001005000
M_162921_940080,EAST RINDGE RD,EAST RINDGE RD,nan,01430,42.71042684022287,-71.95260911354373,250277001001006
M_162683_939717,EAST RINDGE RD,EAST RINDGE RD,nan,01430,42.70714778717351,-71.95549057125203,250277001001006
M_162851_939067,266 EAST RINDGE RD,EAST RINDGE RD,266,01430,42.70130467499671,-71.95339783244093,250277001001008
M_163317_939751,FERIN ROAD,FERIN ROAD,nan,01430,42.7074840663254,-71.94775430156443,250277001001008
M_163186_939252,RINDGE RD,RINDGE RD,nan,01430,42.70298596711096,-71.94932117894176,250277001001008
M_142115_931256,CHESTNUT HILL AV,CHESTNUT HILL AV,nan,nan,42.62972301020083,-72.20567934079676,250277032002029
M_141526_930454,TOWNSEND RD,TOWNSEND RD,nan,nan,42.62245944821375,-72.21277783910473,250277032002029
M_142448_930710,GULF RD,GULF RD,nan,nan,42.62483273378741,-72.20156515501665,250277032002011
M_142605_930616,GULF RD,GULF RD,nan,nan,42.62399816854442,-72.19964199505098,250277032002013
M_142502_930525,LOT 3 GULF RD,GULF RD,LOT 3,nan,42.62317138764278,-72.20088838816673,250277032002013
M_142310_930647,CHESTNUT HILL AV,CHESTNUT HILL AV,nan,01331,42.62425538724461,-72.20324098231731,250277032002011
M_143809_932077,PAINE SWAMP RD,PAINE SWAMP RD,nan,nan,42.637237837319226,-72.18510898230691,250277032002005
M_143769_932629,PAINE SWAMP RD,PAINE SWAMP RD,nan,nan,42.64220394949428,-72.1856507614073,250277032002005
M_144297_932155,PAINE SWAMP RD,PAINE SWAMP RD,nan,nan,42.63797511211683,-72.17916686529435,250277032002005
M_144671_932781,PAINE SWAMP RD,PAINE SWAMP RD,nan,nan,42.64363697389622,-72.17466737755895,250277032002005
M_145118_931711,GULF RD,GULF RD,nan,nan,42.634036706981,-72.16911465185416,250277032002000
M_144067_931094,GULF RD,GULF RD,nan,nan,42.6284076370051,-72.18186764118106,250277032002005
M_143760_931544,PAINE SWAMP RD,PAINE SWAMP RD,nan,nan,42.63243631479577,-72.18565415119775,250277032002005
M_143686_931227,PAINE SWAMP RD,PAINE SWAMP RD,nan,nan,42.629577371611504,-72.1865251832576,250277032002005
M_143655_931015,GULF RD,GULF RD,nan,nan,42.62766673246601,-72.18688227628606,250277032002005
M_143387_931209,GULF RD,GULF RD,nan,nan,42.62939361680847,-72.19016836446329,250277032002012
M_142913_930615,GULF RD,GULF RD,nan,nan,42.62401184823773,-72.1958875590452,250277032002014
M_143425_930752,GULF RD,GULF RD,nan,nan,42.62528253733587,-72.18966008158706,250277032002015
M_145950_931399,GULF RD,GULF RD,nan,nan,42.63128643416369,-72.15894203038279,250277032002006
M_143082_932385,CHESTNUT HILL AV,CHESTNUT HILL AV,nan,nan,42.63995749101361,-72.1940030978074,250277032002011
M_144179_931272,GULF RD,GULF RD,nan,nan,42.63001801900864,-72.18051964262511,250277032002004
M_142870_929949,BEARSDEN RD,BEARSDEN RD,nan,nan,42.618013447719015,-72.19634542658949,250277032002014
M_143125_930354,BEARSDEN RD,BEARSDEN RD,nan,nan,42.62167790347913,-72.19327754514136,250277033001012
M_143924_930451,BEARSDEN RD,BEARSDEN RD,nan,nan,42.62260913553552,-72.18354803354445,250277033001012
M_144412_930342,BEARSDEN RD,BEARSDEN RD,nan,nan,42.62166298263233,-72.17758917035904,250277032002001
M_145947_930575,GULF RD,GULF RD,nan,nan,42.62386867873437,-72.15890100299168,250277032002006
M_145687_929729,BEARSDEN RD,BEARSDEN RD,nan,nan,42.61623495149615,-72.16199021573898,250277033001002
M_143029_929341,BEARSDEN RD,BEARSDEN RD,nan,nan,42.61255197295748,-72.19434716942335,250277032002014
M_145381_929194,BEARSDEN RD,BEARSDEN RD,nan,nan,42.61139749083973,-72.16566883558983,250277033001002
M_144864_930122,BEARSDEN RD,BEARSDEN RD,nan,nan,42.61971475998581,-72.17205862254053,250277033001002
M_142690_928875,BEARSDEN RD,BEARSDEN RD,nan,nan,42.6083321757382,-72.19843212132189,250277032002014
M_142880_929000,BEARSDEN RD,BEARSDEN RD,nan,nan,42.60947139493821,-72.19612914279219,250277032002014
M_142078_930267,TOWNSEND RD,TOWNSEND RD,nan,nan,42.62081743027165,-72.20603059115561,250277032002055
M_142587_930232,CHESTNUT HILL AV,CHESTNUT HILL AV,nan,nan,42.62054012600508,-72.19982299969055,250277032002014
M_141423_929735,TOWNSEND RD,TOWNSEND RD,nan,nan,42.615979360611966,-72.21395995557765,250277032002028
M_141457_928580,ROYALSTON RD,ROYALSTON RD,nan,nan,42.60558475431136,-72.21342782498827,250277032002013
M_141769_928837,ROYALSTON RD,ROYALSTON RD,nan,nan,42.60792166964958,-72.20965190367549,250277032002013
M_141528_927902,CHESTNUT HILL AV,CHESTNUT HILL AV,nan,nan,42.59948680904644,-72.2124936160395,250277032002014
M_142097_928790,CHESTNUT HILL AV,CHESTNUT HILL AV,nan,nan,42.60752307753583,-72.20565006443786,250277033001012
M_142154_928709,CHESTNUT HILL AV,CHESTNUT HILL AV,nan,nan,42.60679816705771,-72.20494729252313,250277033001017
M_141554_927478,CHESTNUT HILL AV,CHESTNUT HILL AV,nan,nan,42.59567195251272,-72.21213368111553,250277033001012
M_139302_928931,FIELD DR,FIELD DR,nan,nan,42.60857916171782,-72.23972529673527,250277032003045
M_139562_927834,PEQUOIG AV,PEQUOIG AV,nan,nan,42.59872435945555,-72.23644141443324,250277032003041
M_137812_925770,BROOKSIDE RD,BROOKSIDE RD,nan,nan,42.58000646501633,-72.25754082641424,250277032003022
M_137001_924762,881 PARTRIDGEVILLE RD,PARTRIDGEVILLE RD,881,nan,42.57086726554513,-72.26730900722916,250277031003040
M_139279_927403,MAIN ST,MAIN ST,nan,nan,42.59482249732687,-72.23984406555574,250277031001006
M_139156_926965,BICKFORD DR,BICKFORD DR,nan,nan,42.590870051373855,-72.24129628180819,250277032003017
M_139135_926988,BICKFORD DR,BICKFORD DR,nan,nan,42.59107545192722,-72.24155455975182,250277032003017
M_139222_926961,BICKFORD DR,BICKFORD DR,nan,nan,42.59083920454834,-72.24049178446325,250277032003014
M_138671_926146,S ATHOL RD,S ATHOL RD,nan,nan,42.58345939184643,-72.24711760627693,250277031001038
M_138706_926036,S ATHOL RD,S ATHOL RD,nan,nan,42.58247193956154,-72.24667952332682,250277031002032
M_140129_927140,573 SOUTH ST,SOUTH ST,573,nan,42.59252090151653,-72.22946049819303,250277031001024
M_140979_927607,CRESCENT ST,CRESCENT ST,nan,nan,42.59678977030096,-72.21915267433262,250277032002054
M_141328_927541,CRESCENT ST,CRESCENT ST,nan,nan,42.596222054516026,-72.21489367673618,250277032002014
M_141021_927092,LIBERTY ST,LIBERTY ST,nan,nan,42.592156970315806,-72.21858807718368,250277033001039
M_141037_927097,59 PARK ST,PARK ST,59,nan,42.592203193197165,-72.2183936587444,250277033001039
M_141372_927067,103 KENNEBUNK ST,KENNEBUNK ST,103,nan,42.59195846270698,-72.21430921472954,250277033001023
M_141800_926121,GIBSON DR,GIBSON DR,nan,nan,42.58347477388526,-72.20899900548746,250277033001015
M_141905_926103,GIBSON DR,GIBSON DR,nan,nan,42.58332058854603,-72.20771812297684,250277033001015
M_142125_926148,2289 MAIN ST,MAIN ST,2289,nan,42.58374207788333,-72.20504271815464,250277033001014
M_141894_926049,GIBSON DR,GIBSON DR,nan,nan,42.582833661258434,-72.20784666070624,250277033001015
M_141984_926034,GIBSON DR,GIBSON DR,nan,nan,42.58270535026298,-72.20674881786886,250277033001015
M_141825_927487,GREEN ST,GREEN ST,nan,nan,42.59577329053072,-72.20883275272344,250277033001017
M_142783_926682,PINE RIDGE RD,PINE RIDGE RD,nan,01331,42.588597806389785,-72.19708037652441,250277033001005
M_145982_927850,COBB RD,COBB RD,nan,nan,42.59934087677025,-72.15821804331159,250277033001057
M_144187_926742,TEMPLETON RD,TEMPLETON RD,nan,nan,42.58923994918933,-72.17998186663671,250277033001005
M_145268_926720,COBB RD,COBB RD,nan,nan,42.58911873290673,-72.16681025609023,250277033001058
M_145087_926440,COBB RD,COBB RD,nan,nan,42.58658542066624,-72.16898856816957,250277033001058
M_143784_926418,TEMPLETON RD,TEMPLETON RD,nan,01331,42.58629428736696,-72.18485979911938,250277033001005
M_142671_922885,2155 PETERSHAM RD,PETERSHAM RD,2155,nan,42.55440898809768,-72.19806624367646,250277033002033
M_139806_920507,RICEVILLE RD,RICEVILLE RD,nan,nan,42.53278579735738,-72.23270149776434,250277033002071
M_140116_920510,RICEVILLE RD,RICEVILLE RD,nan,nan,42.532836714293005,-72.22892857035055,250277033002071
M_140631_920286,NEW SHERBORN RD,NEW SHERBORN RD,nan,nan,42.530859699724445,-72.22263701559608,250277033002087
M_140880_920717,NEW SHERBORN RD,NEW SHERBORN RD,nan,nan,42.534758544369126,-72.21965060291994,250277033002069
M_142998_926454,TEMPLETON RD,TEMPLETON RD,nan,nan,42.58656114844249,-72.1944385116478,250277033001005
M_172944_885428,SOUTHBRIDGE ST,SOUTHBRIDGE ST,nan,01501,42.2188383574684,-71.8277006448718,250277363001008
M_171222_884851,200 OXFORD ST N,OXFORD ST N,200,01501,42.21358218725513,-71.84852862412363,250277362002000
M_171171_885007,OXFORD ST N,OXFORD ST N,nan,01501,42.214984772939765,-71.84915400887492,250277362002000
M_173346_884669,277 PAKACHOAG ST,PAKACHOAG ST,277,01501,42.212018896904986,-71.82279690192489,250277364002025
M_173301_884772,275 PAKACHOAG ST,PAKACHOAG ST,275,01501,42.21294466983387,-71.82334660404403,250277364002025
M_174553_884759,WASHINGTON ST,WASHINGTON ST,nan,01501,42.21286935906282,-71.80818343216518,250277364002006
M_172223_884489,WALSH AVE,WALSH AVE,nan,01501,42.21035929207662,-71.83638841135023,250277363001039
M_173253_884706,279  PAKACHOAG ST,PAKACHOAG ST,279,01501,42.21234883318871,-71.82392488199432,250277364002025
M_175307_884520,101 WASHINGTON ST,WASHINGTON ST,101,01501,42.21074180662525,-71.7990418199625,250277365005004
M_171353_883167,403 OXFORD ST N,OXFORD ST N,403,01501,42.19842596809932,-71.84685917276325,250277363002018
M_173387_883504,85 BANCROFT ST,BANCROFT ST,85,01501,42.20153180435723,-71.8222470676364,250277365002000
M_170142_882338,BRYN MAWR AVE,BRYN MAWR AVE,nan,01501,42.1909172104506,-71.86147930520593,250277361003016
M_170227_882345,BRYN MAWR AVE,BRYN MAWR AVE,nan,01501,42.1909834699802,-71.86045061334075,250277361003016
M_170265_882475,BRYN MAWR AVE,BRYN MAWR AVE,nan,01501,42.19215530509959,-71.85999720951402,250277361003006
M_171356_882631,OXFORD ST N,OXFORD ST N,nan,01501,42.193600469305,-71.84679646249387,250277363002020
M_171346_882595,OXFORD ST N,OXFORD ST N,nan,01501,42.19327599501023,-71.8469157596952,250277363002021
M_168874_881813,0 WEST ST,WEST ST,0,01501,42.18614122872195,-71.87680221927477,250277361003020
M_171382_882162,39 MEADOW ST,MEADOW ST,39,01501,42.18937900967863,-71.84645861676132,250277365003010
M_171215_882106,601 SOUTHBRIDGE ST,SOUTHBRIDGE ST,601,01501,42.18886871621653,-71.84847757971272,250277361001010
M_168461_881098,TINKER HILL RD,TINKER HILL RD,nan,01501,42.17968754497851,-71.88176306980786,250277361003020
M_169731_881454,766  SOUTHBRIDGE ST,SOUTHBRIDGE ST,766,01501,42.18294276323972,-71.86640908935273,250277361003020
M_171293_881334,POND AVE,POND AVE,nan,01501,42.18192125198458,-71.84749522959223,250277365003020
M_171274_881337,POND AVE,POND AVE,nan,01501,42.18194756393111,-71.84772536809857,250277365003020
M_171447_881243,I395 OFF,I395 OFF,nan,01501,42.18110761012688,-71.8456266326451,250277365003024
M_169165_880706,3 HILL ST,HILL ST,3,01501,42.17618641363156,-71.87322086682181,250277361002010
M_171525_880981,EDDY POND (PIECE OF),EDDY POND (PIECE OF),nan,01501,42.17875165874034,-71.84466965794348,250277365003026
M_171437_880625,OXFORD ST S,OXFORD ST S,nan,01501,42.175543373433946,-71.84571735838172,250277365003020
M_172049_880953,SOUTH ST,SOUTH ST,nan,01501,42.17851846169423,-71.83832573281364,250277365003028
M_171466_879748,CEDAR ST,CEDAR ST,nan,01501,42.16764876582441,-71.8453233809556,250277365005048
M_171077_879048,OXFORD ST S,OXFORD ST S,nan,01501,42.16133235702816,-71.84999631232873,250277365005048
M_156919_906921,COLDBROOK ROAD,COLDBROOK ROAD,nan,01005,42.41161489783916,-72.0233878778606,250277221003053
M_153326_907461,GILWEE ROAD,GILWEE ROAD,nan,01005,42.41626947392739,-72.06708134764635,250277221003015
M_154415_907610,GRANGER ROAD,GRANGER ROAD,nan,01005,42.41767526183954,-72.05386230990426,250277221003026
M_154521_907903,GRANGER ROAD,GRANGER ROAD,nan,01005,42.42031917488477,-72.05259749868505,250277221003016
M_153554_907355,GILBERT/GRANGER RD,GILBERT/GRANGER RD,nan,01005,42.41532882532879,-72.06430274627796,250277221003015
M_156106_907723,COLDBROOK ROAD,COLDBROOK ROAD,nan,01005,42.41878956099113,-72.0333256210802,250277221003043
M_153810_907849,CUT-OFF ROAD (OFF),CUT-OFF ROAD (OFF),nan,01005,42.41979124939409,-72.06123201633527,250277221003015
M_153760_908428,CUT-OFF ROAD,CUT-OFF ROAD,nan,01005,42.42500070823273,-72.06188586743781,250277221003015
M_153283_910141,SUNRISE AVNEUE (OFF),SUNRISE AVNEUE (OFF),nan,01005,42.44039343603328,-72.06782053604536,250277221001085
M_152592_911893,GILBERT ROAD,GILBERT ROAD,nan,01005,42.456123903005206,-72.07636291357319,250277221001013
M_153267_912628,WILLIAMSVILLE ROAD (OFF),WILLIAMSVILLE ROAD (OFF),nan,01005,42.46278141343753,-72.06821636989412,250277221001078
M_150745_914692,PHILLIPSTON ROAD (OFF),PHILLIPSTON ROAD (OFF),nan,01005,42.48120686797563,-72.09905608732763,250277221001000
M_150306_914310,OLD PETERSHAM ROAD,OLD PETERSHAM ROAD,nan,01005,42.47774011055319,-72.10436225830357,250277221001002
M_150863_914199,OLD PETERSHAM ROAD,OLD PETERSHAM ROAD,nan,01005,42.47677618452728,-72.09757897097404,250277221001000
M_151092_914263,PHILLIPSTON ROAD (OFF),PHILLIPSTON ROAD (OFF),nan,01005,42.47736674185235,-72.0947995085392,250277221001000
M_150120_913856,OLD PETERSHAM ROAD,OLD PETERSHAM ROAD,nan,01005,42.47364117814904,-72.10658498872249,250277221001003
M_150331_914027,OLD PETERSHAM ROAD,OLD PETERSHAM ROAD,nan,01005,42.47519405283321,-72.10403385382486,250277221001002
M_149645_913835,SKELLY ROAD,SKELLY ROAD,nan,01005,42.47342157487538,-72.11235937859082,250277221001003
M_148897_913401,HAWES HILL ROAD,HAWES HILL ROAD,nan,01005,42.46946587284255,-72.12141692120652,250277221001016
M_149351_913099,HAWES HILL ROAD,HAWES HILL ROAD,nan,01005,42.46677681805121,-72.11586991920709,250277221001004
M_152444_913257,WILLIAMSVILLE ROAD (OFF),WILLIAMSVILLE ROAD (OFF),nan,01005,42.468394098839376,-72.07827459261222,250277221001014
M_150468_913014,GILBERT ROAD (OFF),GILBERT ROAD (OFF),nan,01005,42.46608342602544,-72.10228084125788,250277221001004
M_149999_912917,BALDWIN ROAD (OFF),BALDWIN ROAD (OFF),nan,01005,42.465180246293706,-72.10797501437172,250277221001004
M_148999_912761,HAWES HILL ROAD,HAWES HILL ROAD,nan,01005,42.46371107471503,-72.12012005699526,250277221001004
M_150278_912456,FLAHERTY ROAD (OFF),FLAHERTY ROAD (OFF),nan,01005,42.46104802312738,-72.10454296735391,250277221001004
M_150515_910328,MURPHY ROAD (OFF),MURPHY ROAD (OFF),nan,01005,42.44190608056507,-72.10147906184415,250277221001009
M_150274_910039,NOURSE LANE (OFF),NOURSE LANE (OFF),nan,01005,42.43928905454356,-72.10438337511486,250277221001004
M_146362_908760,OLD DANA ROAD,OLD DANA ROAD,nan,01005,42.427515670228544,-72.15181031589397,250277221001031
M_145828_909395,DANA ROAD,DANA ROAD,nan,01005,42.4331952531872,-72.15835879983439,250277221001031
M_145193_908054,OLD DANA ROAD (OFF),OLD DANA ROAD (OFF),nan,01005,42.42107869687426,-72.16594848017091,250277221001050
M_143287_908490,DANA ROAD,DANA ROAD,nan,01005,42.42486742710667,-72.18914970189721,250277221001054
M_143141_908375,DANA ROAD,DANA ROAD,nan,01005,42.42382152347571,-72.19091242858106,250277221001054
M_144705_908167,OLD DANA ROAD (OFF),OLD DANA ROAD (OFF),nan,01005,42.42206151216464,-72.1718886380773,250277221001050
M_143442_908275,OLD DANA ROAD,OLD DANA ROAD,nan,01005,42.42294317924132,-72.18724524686766,250277221001071
M_143328_908235,OLD DANA ROAD,OLD DANA ROAD,nan,01005,42.422574807599226,-72.18862649490656,250277221001071
M_143294_908224,OLD DANA ROAD,OLD DANA ROAD,nan,01005,42.42247330977131,-72.18903853422705,250277221001071
M_143262_908207,OLD DANA ROAD,OLD DANA ROAD,nan,01005,42.42231794185346,-72.18942568191264,250277221001071
M_142801_908120,DANA ROAD,DANA ROAD,nan,01005,42.4215010559865,-72.19501845047894,250277221001074
M_143088_908115,DANA ROAD,DANA ROAD,nan,01005,42.42147704444327,-72.19153080723423,250277221001071
M_142848_908097,DANA ROAD,DANA ROAD,nan,01005,42.421297448108575,-72.19444510886528,250277221001074
M_142928_908082,DANA ROAD,DANA ROAD,nan,01005,42.42116827226341,-72.19347160231389,250277221001071
M_143056_908089,DANA ROAD,DANA ROAD,nan,01005,42.42124064688596,-72.191917055605,250277221001071
M_142975_908081,DANA ROAD,DANA ROAD,nan,01005,42.42116270853048,-72.19290044020089,250277221001071
M_143015_908082,DANA ROAD,DANA ROAD,nan,01005,42.42117463514524,-72.19241452744546,250277221001071
M_146101_907914,SHELDON ROAD,SHELDON ROAD,nan,01005,42.4198816546272,-72.15490293703968,250277221001031
M_150332_909035,RUGGLES LANE,RUGGLES LANE,nan,01005,42.4302543436183,-72.10359209926455,250277221002000
M_150201_909025,146 RUGGLES LANE,RUGGLES LANE,146,01005,42.43015596303924,-72.10518316574976,250277221002000
M_150195_908945,RUGGLES LANE,RUGGLES LANE,nan,01005,42.42943538707123,-72.10524917990551,250277221002000
M_143276_908608,DANA ROAD,DANA ROAD,nan,01005,42.42592890436344,-72.18929495014089,250277221001054
M_143510_908654,DANA ROAD,DANA ROAD,nan,01005,42.42636000127933,-72.1864560659868,250277221001054
M_142740_907579,DANA ROAD,DANA ROAD,nan,01005,42.416626302459846,-72.19570600581534,250277221001074
M_143229_908183,DANA ROAD,DANA ROAD,nan,01005,42.42209948331635,-72.18982429029778,250277221001071
M_142693_908163,DANA ROAD,DANA ROAD,nan,01005,42.4218802272893,-72.19633495313379,250277221001074
M_143377_907545,RACCOON HILL ROAD,RACCOON HILL ROAD,nan,01005,42.41636673547265,-72.18796349485447,250277221001071
M_143194_908166,DANA ROAD,DANA ROAD,nan,01005,42.42194389419149,-72.190247885074,250277221001071
M_142730_908142,DANA ROAD,DANA ROAD,nan,01005,42.42169389628928,-72.19588330589521,250277221001074
M_143158_908145,DANA ROAD,DANA ROAD,nan,01005,42.421752221173264,-72.19068323461192,250277221001071
M_142766_908130,DANA ROAD,DANA ROAD,nan,01005,42.42158851129746,-72.19544470327702,250277221001074
M_143122_908126,DANA ROAD,DANA ROAD,nan,01005,42.42157855121568,-72.19111877841222,250277221001071
M_145316_907294,SHELDON ROAD,SHELDON ROAD,nan,01005,42.414245517044336,-72.16438206513095,250277221001050
M_142233_907579,DANA ROAD (OFF),DANA ROAD (OFF),nan,01005,42.41658890952701,-72.20186575246561,250277221001074
M_147115_907548,OLD HARDWICK ROAD,OLD HARDWICK ROAD,nan,01005,42.416656204545,-72.14254924146992,250277221001030
M_152928_907437,WALNUT HILL ROAD,WALNUT HILL ROAD,nan,01005,42.41602949184105,-72.07191488208126,250277221003017
M_147207_906899,OLD HARDWICK ROAD,OLD HARDWICK ROAD,nan,01005,42.4108198704513,-72.14137219833428,250277221001046
M_143822_907000,SPOONER ROAD,SPOONER ROAD,nan,01005,42.41149262238707,-72.18250404040091,250277221001069
M_147826_906570,WAUWINET ROAD,WAUWINET ROAD,nan,01005,42.40789972739403,-72.1338226622894,250277221001044
M_144084_906242,SPOONER ROAD,SPOONER ROAD,nan,01005,42.40468763455703,-72.17924781603615,250277221001068
M_143957_906502,RACCOON HILL ROAD,RACCOON HILL ROAD,nan,01005,42.407019143569954,-72.18081571081308,250277221001069
M_150234_904582,LORING ROAD,LORING ROAD,nan,01005,42.39016017677488,-72.10439955875538,250277221003087
M_152140_903812,BARRE DEPOT ROAD (OFF),BARRE DEPOT ROAD (OFF),nan,01005,42.38334749659287,-72.0811885273127,250277221003079
M_150743_903886,39 MAIN STREET,MAIN STREET,39,01005,42.38392673685781,-72.098158768222,250277221004010
M_149892_903225,56 NORTH BROOKFIELD ROAD,NORTH BROOKFIELD ROAD,56,01005,42.37792188667829,-72.10843539252292,250277221004026
M_149263_902525,NORTH BROOKFIELD ROAD (OFF),NORTH BROOKFIELD ROAD (OF,nan,01005,42.371579477575146,-72.11601136417036,250277221003098
M_151047_903937,BARRE,BARRE,nan,01005,42.384404998397926,-72.09447154103138,250277221004013
M_146820_904016,BARRE,BARRE,nan,01005,42.38483952439693,-72.14580842659198,250277221001075
M_143751_907181,RACCOON HILL ROAD,RACCOON HILL ROAD,nan,01005,42.413116936284936,-72.18338419688212,250277221001071
M_63209_894713,0  JACOBS LADDER ROAD,JACOBS LADDER ROAD,0,01223,42.29092352119898,-73.15879070060836,250039322002185
M_63871_896800,0  YOKUM POND ROAD,YOKUM POND ROAD,0,01223,42.3098246663564,-73.15125487107703,250039322002004
M_65147_895124,0  TYNE ROAD,TYNE ROAD,0,01223,42.29495992600732,-73.13539096629275,250039322002153
M_71043_889150,0  STEPHEN DRIVE,STEPHEN DRIVE,0,01223,42.24218074194024,-73.0625782380891,250039322002036
M_70648_888827,0  SIR STEPHEN DRIVE,SIR STEPHEN DRIVE,0,01223,42.23920801932245,-73.06729148958065,250039322002203
M_66188_899159,0  STANLEY ROAD,STANLEY ROAD,0,01223,42.3314589287656,-73.12370098329448,250039322002002
M_64872_898974,0  COUNTY ROAD,COUNTY ROAD,0,01223,42.32956708163972,-73.13962252393317,250039322002003
M_63285_898948,0  COUNTY ROAD,COUNTY ROAD,0,01223,42.32905681180944,-73.15886797770689,250039322002004
M_65372_893271,61  TOWER ROAD,TOWER ROAD,61,01223,42.27831936883433,-73.13223304167462,250039322002158
M_63894_891121,0  TYRINGHAM ROAD,TYRINGHAM ROAD,0,01223,42.25871062295831,-73.14964383136845,250039322002166
M_64133_890459,0  TYRINGHAM ROAD,TYRINGHAM ROAD,0,01223,42.25279333801085,-73.14659293045669,250039322002170
M_69125_888675,0  JOHNSON ROAD,JOHNSON ROAD,0,01223,42.237586383689056,-73.08570643392308,250039322002213
M_67321_899003,0  MCNERNEY ROAD,MCNERNEY ROAD,0,01223,42.33024807453476,-73.10992049460579,250039322002002
M_70297_888609,0  JOHNSON ROAD,JOHNSON ROAD,0,01223,42.23718755619426,-73.07149475497008,250039322002203
M_73647_891364,0  CHESTER ROAD,CHESTER ROAD,0,01223,42.26253525367935,-73.03151392953264,250039322003053
M_73113_892654,0  CHESTER ROAD,CHESTER ROAD,0,01223,42.27406067886764,-73.03826705361962,250039322003047
M_74201_892562,0  WADE INN ROAD,WADE INN ROAD,0,01223,42.27340842476723,-73.0250599763881,250039322003047
M_74769_896276,0  WESTFIELD RIVER,WESTFIELD RIVER,0,01223,42.30693117546342,-73.0189773068161,250039322003000
M_72087_892191,0  MAIN STREET,MAIN STREET,0,01223,42.26972575329549,-73.05060062330038,250039322003047
M_75184_896375,0  WESTFIELD RIVER,WESTFIELD RIVER,0,01223,42.30788874224909,-73.01396597496515,250039322003000
M_123813_901034,0  GOLD ST,GOLD ST,0,01007,42.356087454114046,-72.42479012118397,250158202042013
M_120633_895896,0  BAY PATH RD,BAY PATH RD,0,01007,42.30951696076049,-72.4626832251485,250158202034002
M_121478_894798,535  BAY RD,BAY RD,535,01007,42.29971780565534,-72.45228595655072,250158202034002
M_123853_893165,0  GEORGE HANNUM ST,GEORGE HANNUM ST,0,01007,42.28525201512416,-72.42327075392294,250158202031002
M_124335_893265,95  GEORGE HANNUM ST,GEORGE HANNUM ST,95,01007,42.28619907705561,-72.41744007057325,250158202031014
M_123274_893114,0  GEORGE HANNUM ST,GEORGE HANNUM ST,0,01007,42.2847362560071,-72.43028374197438,250158202034013
M_124303_892751,270  JACKSON ST,JACKSON ST,270,01007,42.28156874077719,-72.41776098665429,250158202031013
M_123696_892342,295  GEORGE HANNUM ST,GEORGE HANNUM ST,295,01007,42.277827722740845,-72.4250659869473,250158202031060
M_125817_892521,68  EAST WALNUT ST,EAST WALNUT ST,68,01007,42.279643371560525,-72.39937701198937,250158202031034
M_126864_892304,91  JENSEN ST,JENSEN ST,91,01007,42.27778852693428,-72.38665700757765,250158202042085
M_126083_892029,41  EVERETT AV,EVERETT AV,41,01007,42.2752393751795,-72.3960896663905,250158202031036
M_127252_892730,120  WARE RD,WARE RD,120,01007,42.28165978671281,-72.38200686694898,250158202042068
M_130388_892219,0  WARE RD,WARE RD,0,01007,42.277345161396966,-72.34392680806853,250158202042065
M_130751_891412,0  EAST ST,EAST ST,0,01007,42.27011238570756,-72.33943005695167,250158202042080
M_130321_890837,0  EAST ST,EAST ST,0,01007,42.26489772300031,-72.34457312467671,250158202042080
M_130976_890867,91  EAST ST,EAST ST,91,01007,42.265225913040034,-72.3366380045982,250158202042083
M_131334_891374,0  ENOCH SANFORD RD,ENOCH SANFORD RD,0,01007,42.26982172618699,-72.33235893979294,250158202042083
M_124688_891362,0  STATE ST (REAR),STATE ST (REAR),0,01007,42.26910156837084,-72.41291331612132,250158202032003
M_124811_891516,45  STATE ST,STATE ST,45,01007,42.27049978603143,-72.41144240097726,250158202032003
M_124379_891124,0  TURKEY HILL RD,TURKEY HILL RD,0,01007,42.2669291535762,-72.4166276474021,250158202032001
M_128786_889749,390  SABIN ST,SABIN ST,390,01007,42.25496465145508,-72.36304404033898,250158202042089
M_129407_890156,391  SABIN ST,SABIN ST,391,01007,42.25868500001984,-72.35556810816303,250158202042080
M_128633_889398,0  COLD SPRING ST,COLD SPRING ST,0,01007,42.25179081527428,-72.36485499427413,250158202041006
M_128246_889563,0  MILL VALLEY RD,MILL VALLEY RD,0,01007,42.25324080767575,-72.36956488114174,250158202041002
M_130079_889832,0  EAST ST,EAST ST,0,01007,42.2558285752984,-72.34738517801728,250158202042080
M_130864_889497,341  EAST ST,EAST ST,341,01007,42.25288253880844,-72.33783235930757,250158202042083
M_129891_889005,0  COLD SPRING ST,COLD SPRING ST,0,01007,42.24836663987383,-72.34956361012902,250158202042080
M_126237_882132,0  SOUTH ST (REAR),SOUTH ST (REAR),0,01007,42.18615593771264,-72.39296683986584,250158202041049
M_127153_897260,370  BLUE MEADOW RD,WARE RD,370,01007,42.32243148777883,-72.38377611655659,250158202042042
M_131028_891495,15  EAST ST,EAST ST,15,01007,42.27088408791027,-72.33608236552602,250158202042081
F_626826_2968705,OLD CENTRAL ST,OLD CENTRAL ST,nan,01503,42.394226874047874,-71.60861795793711,250277171002014
F_608781_2968451,BOYLSTON RD,BOYLSTON RD,nan,01503,42.39344744653636,-71.67541772898265,250277171002035
F_613110_2966444,WEST ST,WEST ST,nan,01503,42.38796349313973,-71.659378293831,250277171001010
F_616400_2964017,LINDEN ST,LINDEN ST,nan,01503,42.38131994666063,-71.64718457309694,250277171002038
F_610399_2967028,BOYLSTON RD,BOYLSTON RD,nan,01503,42.38955166903233,-71.66941758284266,250277171002033
F_613338_2966083,WEST ST,WEST ST,nan,01503,42.38697406362864,-71.65853184877255,250277171002032
F_613213_2965916,WEST ST,WEST ST,nan,01503,42.38651517182135,-71.65899338743671,250277171002037
F_615204_2966015,WEST ST,WEST ST,nan,01503,42.38679677886306,-71.6516243502155,250277171001010
F_617592_2959087,JONES RD,JONES RD,nan,01503,42.36779738542794,-71.64274220943199,250277171002061
F_615516_2966284,COBURN RD,COBURN RD,nan,01503,42.38753643966693,-71.65047123324914,250277171001010
F_613169_2966892,WEST ST,WEST ST,nan,01503,42.3891931213124,-71.65916299472372,250277171001010
F_613214_2966742,WEST ST,WEST ST,nan,01503,42.38878174700344,-71.65899538513932,250277171001010
F_613212_2966268,WEST ST,WEST ST,nan,01503,42.38748106596045,-71.65899951771641,250277171001010
F_612038_2965923,BARNES HILL RD,BARNES HILL RD,nan,01503,42.386528287795656,-71.66334269970602,250277171002033
F_614980_2965966,WEST ST,WEST ST,nan,01503,42.38666122563959,-71.65245316595399,250277171002032
F_614777_2965932,WEST ST,WEST ST,nan,01503,42.386566930459374,-71.65320434633301,250277171002032
F_617083_2965906,COBURN RD,COBURN RD,nan,01503,42.38650663456124,-71.64466851343737,250277171001011
F_613516_2965765,WEST ST,WEST ST,nan,01503,42.38610236727606,-71.65787079826806,250277171002038
F_615146_2965896,WEST ST,WEST ST,nan,01503,42.3864699558643,-71.65183825411758,250277171002032
F_615252_2965879,WEST ST,WEST ST,nan,01503,42.386423824421634,-71.65144578355746,250277171002032
F_615360_2965891,WEST ST,WEST ST,nan,01503,42.3864572783099,-71.65104610067254,250277171002032
F_613876_2965553,WEST ST,WEST ST,nan,01503,42.38552245296631,-71.65653682660091,250277171002038
F_614596_2965498,WEST ST,WEST ST,nan,01503,42.38537512612436,-71.65387142054763,250277171002038
F_615201_2965498,WEST ST,WEST ST,nan,01503,42.38537809917728,-71.65163205277776,250277171002038
F_617020_2965742,COBURN RD,COBURN RD,nan,01503,42.38605631966648,-71.64490067675528,250277171002031
F_613404_2965561,WEST ST,WEST ST,nan,01503,42.38554201501795,-71.65828396237798,250277171002037
F_615431_2965503,WEST ST,WEST ST,nan,01503,42.385392938161736,-71.65078075554257,250277171002038
F_614655_2963645,DERBY RD,DERBY RD,nan,01503,42.38029072125584,-71.65364068148186,250277171002046
F_612780_2965485,DERBY RD,DERBY RD,nan,01503,42.38533026785865,-71.66059313340864,250277171002040
F_616646_2965217,WEST ST,WEST ST,nan,01503,42.3846139501898,-71.6462816955632,250277171002038
F_613501_2965340,WEST ST,WEST ST,nan,01503,42.38493607706581,-71.65792340780523,250277171002037
F_614292_2964983,WEST ST,WEST ST,nan,01503,42.38396043842426,-71.65499319263412,250277171002038
F_613899_2964850,WEST ST,WEST ST,nan,01503,42.38359351308897,-71.65644692071105,250277171002037
F_614922_2964641,WEST ST,WEST ST,nan,01503,42.38302509630805,-71.65265907563797,250277171002038
F_615242_2963870,LINDEN ST,LINDEN ST,nan,01503,42.38091101033506,-71.65146959302967,250277171002037
F_615789_2963465,LINDEN ST,LINDEN ST,nan,01503,42.37980232311899,-71.64944242501213,250277171002037
F_621097_2963596,PLEASANT ST,PLEASANT ST,nan,01503,42.38018563390722,-71.62979767228651,250277171002054
F_621282_2963328,PLEASANT ST,PLEASANT ST,nan,01503,42.3794510021517,-71.62911146139864,250277171002054
F_621794_2963340,PLEASANT ST,PLEASANT ST,nan,01503,42.37948604165925,-71.62721656990713,250277171002054
F_621530_2962915,PLEASANT ST,PLEASANT ST,nan,01503,42.37831874057502,-71.62819129400503,250277171002054
F_621719_2962546,PLEASANT ST,PLEASANT ST,nan,01503,42.37730696731997,-71.62748975940616,250277171002054
F_621264_2961925,PLEASANT ST,PLEASANT ST,nan,01503,42.3756010398405,-71.629170217408,250277171002054
F_616914_2960870,JONES RD,JONES RD,nan,01503,42.37268687379244,-71.64526232116968,250277171002062
F_620663_2961261,PLEASANT ST,PLEASANT ST,nan,01503,42.373776477487176,-71.63139065115651,250277171002054
F_620909_2961207,PLEASANT ST,PLEASANT ST,nan,01503,42.37362933545069,-71.63047995922254,250277171002054
F_621067_2960563,PLEASANT ST,PLEASANT ST,nan,01503,42.37186283380135,-71.62989161162105,250277171002054
F_620759_2960529,PLEASANT ST,PLEASANT ST,nan,01503,42.37176824364362,-71.63103121700253,250277171002054
F_620562_2959969,148 PLEASANT ST,PLEASANT ST,148,01503,42.37023074652523,-71.63175704179207,250277171002054
F_618453_2956407,BELLEVIEW RD,BELLEVIEW RD,nan,01503,42.36044724813185,-71.63953993549345,250277171002066
F_617720_2957890,CROSBY RD,CROSBY RD,nan,01503,42.3645133491938,-71.64226116984406,250277171002063
F_622380_2952912,RIVER RD WEST,RIVER RD WEST,nan,01503,42.35087349285078,-71.6249911738794,250277171002101
F_622593_2952901,RIVER RD WEST,RIVER RD WEST,nan,01503,42.35084416202454,-71.6242031386365,250277171002093
M_114880_938356,0  BALD MT RD,BALD MT RD,0,01337,42.69112738638531,-72.53872926183648,250110402002002
M_115233_938621,128  WEST RD,WEST RD,128,01337,42.69355134745513,-72.53446120260513,250110402002002
M_116535_939469,0  HUCKLE HILL RD,HUCKLE HILL RD,0,01337,42.70132550473541,-72.51869724750553,250110402002000
M_116885_939274,0  MARTINDALE RD,MARTINDALE RD,0,01337,42.6996077999536,-72.51439756899174,250110402002000
M_114741_940113,0  BALD MT RD,BALD MT RD,0,01337,42.706927372357015,-72.54068691154069,250110402002002
M_114512_939887,0  BALD MT RD,BALD MT RD,0,01337,42.70486790563927,-72.54344810387956,250110402002002
M_114916_939422,0  BALD MT RD,BALD MT RD,0,01337,42.70072670126149,-72.53844835932068,250110402002002
M_115908_941435,695  OAKES RD,OAKES RD,695,01337,42.71895431664565,-72.52663789484218,250110402002000
M_116366_941358,31  OAKES RD,OAKES RD,31,01337,42.71831070841972,-72.52103568117042,250110402002000
M_116961_941165,NORTHFIELD TOWN LINE,NORTHFIELD TOWN LINE,nan,01337,42.71663735269959,-72.51374437900262,250110402002000
M_116405_941081,0  OAKES RD,OAKES RD,0,01337,42.71582156512112,-72.5205191413113,250110402002000
M_115515_941912,824  HUCKLE HILL RD,HUCKLE HILL RD,824,01337,42.723205218652126,-72.53150579310848,250110402002002
M_115884_942103,831  HUCKLE HILL RD,HUCKLE HILL RD,831,01337,42.72496453209089,-72.52702906182164,250110402002000
M_116816_941987,0  HUCKLE HILL RD,HUCKLE HILL RD,0,01337,42.7240208464673,-72.51563386229368,250110402002000
M_116677_942199,0  NORTHFIELD TOWN LINE,NORTHFIELD TOWN LINE,0,01337,42.725914195088805,-72.51736169160712,250110402002000
M_116380_942226,0  HUCKLE HILL RD,HUCKLE HILL RD,0,01337,42.72612528328435,-72.52099161848687,250110402002000
M_115429_941551,752  HUCKLE HILL RD,HUCKLE HILL RD,752,01337,42.71994641308632,-72.53250234279713,250110402002002
M_113559_935984,26  SOUTH ST,SOUTH ST,26,01337,42.669630346653605,-72.55449011776757,250110402001114
M_113701_936014,0  SOUTH ST,SOUTH ST,0,01337,42.6699161766316,-72.55276255853568,250110402001114
M_116588_939109,0  MARTINDALE RD,MARTINDALE RD,0,01337,42.69809073312313,-72.51799800220093,250110402002000
M_116853_939827,0  HUCKLE HILL RD,HUCKLE HILL RD,0,01337,42.704582090388,-72.51486838384542,250110402002000
F_646780_2830611,CANAL ST,CANAL ST,nan,01504,42.015324520087255,-71.53454205043852,250277471022055
F_642033_2830494,STAPLES LN,STAPLES LN,nan,01504,42.01499683759115,-71.55201029718762,250277471022052
F_646372_2830641,ST PAUL ST,ST PAUL ST,nan,01504,42.01540638326957,-71.53604349848486,250277471022053
F_647620_2830794,MILL ST,MILL ST,nan,01504,42.015827603186914,-71.53145117816229,250277471022021
F_640940_2830568,HARKNESS RD,HARKNESS RD,nan,01504,42.01519800983364,-71.556032591429,250277471022062
F_645883_2830926,ST PAUL & CANAL ST,ST PAUL & CANAL ST,nan,01504,42.01618790331862,-71.53784343982785,250277471022063
F_645313_2831075,CANAL ST,CANAL ST,nan,01504,42.016596078086046,-71.53994127108132,250277471022028
F_645048_2831235,CANAL ST,CANAL ST,nan,01504,42.01703480772816,-71.5409167479246,250277471022012
F_639388_2830988,HARKNESS RD,HARKNESS RD,nan,01504,42.01634763950543,-71.56174491105327,250277471022062
F_644847_2831327,MAIN ST,MAIN ST,nan,01504,42.0172870084672,-71.54165659411778,250277471022029
F_644552_2831474,MENDON ST,MENDON ST,nan,01504,42.01769000745798,-71.5427424707407,250277471022030
F_644262_2831575,MENDON ST,MENDON ST,nan,01504,42.01796676931999,-71.54380987384921,250277471022031
F_643486_2831565,MAIN ST OFF,MAIN ST OFF,nan,01504,42.01793819776833,-71.54666557874599,250277471022032
F_643006_2831833,MAIN ST OFF,MAIN ST OFF,nan,01504,42.018672912813365,-71.54843256579868,250277471022032
F_641626_2831975,MAIN ST (OFF),MAIN ST (OFF),nan,01504,42.0190603280814,-71.55351142986594,250277471022004
F_639060_2832247,MAIN ST OFF,MAIN ST OFF,nan,01504,42.01980194663794,-71.56295535879674,250277471022036
F_645792_2832399,AUSTIN ST,AUSTIN ST,nan,01504,42.02023001947661,-71.53818074215124,250277471022008
F_655237_2835555,ELM ST,ELM ST,nan,01504,42.028897074415966,-71.50342181704687,250277471012003
F_647807_2846903,BLACKSTONE ST,BLACKSTONE ST,nan,01504,42.06003422971544,-71.5307844253332,250277471021000
F_648247_2847584,349 BLACKSTONE ST,BLACKSTONE ST,349,01504,42.06190345387337,-71.52916498548657,250277471021000
F_644624_2847116,BLACKSTONE ST,BLACKSTONE ST,nan,01504,42.0606149915511,-71.54250619361522,250277471021000
F_648725_2848147,BLACKSTONE ST,BLACKSTONE ST,nan,01504,42.06344887281782,-71.52740536776409,250277471021000
F_644473_2848123,BLACKSTONE ST OFF,BLACKSTONE ST OFF,nan,01504,42.0633781920068,-71.54306412748254,250277471021000
F_647443_2848240,BLACKSTONE ST OFF,BLACKSTONE ST OFF,nan,01504,42.06370285556994,-71.53212670753396,250277471021000
F_645000_2830900,ST PAUL ST,ST PAUL ST,nan,01504,42.01611543249904,-71.54109279420477,250277471022027
F_693913_3029381,PROCTOR RD OFF,PROCTOR RD OFF,nan,nan,42.56068648822191,-71.35989570454291,250173171031025
F_694239_3031372,6 SAN MATEO DR,SAN MATEO DR,6,nan,42.56614813294393,-71.35867343737046,250173171031017
F_694019_3031948,16 ELDORADO RD,ELDORADO RD,16,nan,42.567729619562016,-71.35948656551383,250173171031017
F_695204_3032701,70 OLD STAGE RD,OLD STAGE RD,70,nan,42.56979033851481,-71.35508293024742,250173171031030
F_690822_3032555,PROCTOR RD,PROCTOR RD,nan,nan,42.56940901034829,-71.37135088296358,250173171033002
F_691586_3032884,PARK RD OFF,PARK RD OFF,nan,nan,42.570308557806975,-71.36851284883348,250173171033002
F_696226_3032949,11 SONORA DR,SONORA DR,11,nan,42.57046599943816,-71.35128739408972,250173171031022
F_691748_3032949,113 PARK RD,PARK RD,113,nan,42.57048622468539,-71.36791108369532,250173171033002
F_695500_3035435,38 OLD STAGE RD,OLD STAGE RD,38,nan,42.57729077470395,-71.353966724418,250173171031008
F_695118_3035707,6 CROCKETT DR,CROCKETT DR,6,nan,42.578038900340445,-71.35538326489028,250173171031000
F_701393_3035725,97 MILL RD,MILL RD,97,nan,42.57805674649575,-71.3320856551424,250173171032009
F_701551_3035767,99 MILL RD,MILL RD,99,nan,42.57817113511515,-71.33149873314935,250173171032006
F_701464_3035931,MILL RD,MILL RD,nan,nan,42.57862160492648,-71.33182054211954,250173171023011
F_695151_3035937,9 CROCKETT DR,CROCKETT DR,9,nan,42.5786698427837,-71.35525929517101,250173171031000
F_697679_3035777,47 CONCORD RD,CONCORD RD,47,nan,42.57821866707806,-71.34587445117788,250173171031006
F_697012_3036226,SAN ROSA WY OFF,SAN ROSA WY OFF,nan,nan,42.57945395641383,-71.34834789646426,250173171031000
F_697318_3035936,39 CONCORD RD,CONCORD RD,39,nan,42.57865672851147,-71.34721369914027,250173171031006
F_685372_3035965,105 GARRISON RD,GARRISON RD,105,nan,42.5787864938963,-71.39156650658727,250173171014003
F_704526_3037227,207 TURNPIKE RD,TURNPIKE RD,207,nan,42.582160563113455,-71.32044188415767,250173171023038
F_692510_3038251,30 SUMMIT AV,SUMMIT AV,30,nan,42.58503109280738,-71.36505116823648,250173171013004
F_697981_3038245,23 FENWICK RD,FENWICK RD,23,nan,42.58498909122256,-71.3447365190406,250173171023030
F_703252_3038308,6 RUTHELLEN RD,RUTHELLEN RD,6,nan,42.58513396989758,-71.32516400322424,250173171023038
F_693029_3039080,HILLSIDE LN,HILLSIDE LN,nan,nan,42.58730350842367,-71.36311909848267,250173171013004
F_701663_3039498,9 JESSIE RD,JESSIE RD,9,nan,42.58840798239272,-71.3310554677508,250173171023008
F_707752_3040078,123 BRICK KILN RD,BRICK KILN RD,123,nan,42.58996412837134,-71.3084400172857,250173171021046
F_701233_3040935,99 TURNPIKE RD,TURNPIKE RD,99,nan,42.59235327078824,-71.3326417410813,250173171012024
F_698138_3041478,6 MONTCASTLE DR,MONTCASTLE DR,6,nan,42.59385928995538,-71.3441316164975,250173171012021
F_694452_3041671,ACTON RD OFF,ACTON RD OFF,nan,nan,42.59440652993165,-71.35781904455968,250173171011032
F_699187_3041695,TURNPIKE RD OFF,TURNPIKE RD OFF,nan,nan,42.59444938685287,-71.34023445864027,250173171012022
F_706170_3042045,MIDDLESEX TNPK OFF,MIDDLESEX TNPK OFF,nan,nan,42.59537094303334,-71.31429878684905,250173171021046
F_707065_3041683,100P CANAL ST,CANAL ST,100P,nan,42.594372264156746,-71.31097794673975,250173171021046
F_702990_3042926,228 BILLERICA RD,BILLERICA RD,228,nan,42.597806693434215,-71.32610189244645,250173171022039
F_705632_3042671,BILLERICA RD,BILLERICA RD,nan,nan,42.5970918079122,-71.31629178536805,250173171021046
F_691122_3043882,15 PINE HILL RD,PINE HILL RD,15,nan,42.600487819690414,-71.37017320989564,250173172012000
F_700021_3044410,BILLERICA RD,BILLERICA RD,nan,nan,42.601894689884496,-71.33711796816078,250173171022022
F_682215_3045301,SPAULDING RD,SPAULDING RD,nan,nan,42.60441384305118,-71.40324848032961,250173172011029
F_709948_3045933,108 GORHAM ST,GORHAM ST,108,nan,42.60601570434258,-71.3002343711028,250173171021073
F_709355_3046090,CARLISLE ST,CARLISLE ST,nan,nan,42.60645028165549,-71.30243565436103,250173171021064
F_708776_3047670,3 BAILEY TR,BAILEY TR,3,nan,42.61078925293555,-71.30457285547014,250173171021025
F_708704_3047823,BAILEY TR,BAILEY TR,nan,nan,42.6112095167809,-71.30483901151659,250173171021025
F_696282_3049720,14 SMITH ST,SMITH ST,14,nan,42.6164833988926,-71.35097072613972,250173172032016
F_698580_3050514,LANCASTER AV,LANCASTER AV,nan,nan,42.61865069390825,-71.34242817935612,250173172031009
F_684100_3050766,JORDAN ST,JORDAN ST,nan,nan,42.61940301627473,-71.39622232035826,250173172011001
F_693668_3051089,PARKHURST RD,PARKHURST RD,nan,nan,42.62025187152887,-71.3606734636807,250173172033010
F_682969_3051022,SCHOOL ST OFF,SCHOOL ST OFF,nan,01863,42.6201091447951,-71.40042308765123,250173173011041
F_687207_3051498,CROOKED SPRING RD OFF,CROOKED SPRING RD OFF,nan,nan,42.62140057474409,-71.38467555699451,250173173011035
F_686406_3051587,CROOKED SPRING RD,CROOKED SPRING RD,nan,nan,42.62164771172097,-71.38765108085187,250173173011035
F_686782_3051587,CROOKED SPRING RD OFF,CROOKED SPRING RD OFF,nan,nan,42.62164634436306,-71.38625412068,250173173011035
F_687826_3052158,RICHARDSON RD REAR,RICHARDSON RD REAR,nan,nan,42.62320920393084,-71.38237240174671,250173173011035
F_687012_3052374,DOAK DR OFF,DOAK DR OFF,nan,nan,42.623804918309006,-71.38539566854972,250173173011035
F_683116_3051359,SCHOOL ST,SCHOOL ST,nan,nan,42.62103335461895,-71.39987547920302,250173173021051
F_686227_3052344,RICHARDSON RD REAR,RICHARDSON RD REAR,nan,nan,42.62372545970993,-71.38831244036528,250173173011035
F_691618_3052877,3 WESTERN AV,WESTERN AV,3,nan,42.62516683066547,-71.36827943942124,250173173011053
F_688724_3054161,RICHARDSON RD OFF,RICHARDSON RD OFF,nan,nan,42.628701705603184,-71.37902540753818,250173173011023
F_682550_3054313,2 MEADOWBROOK RD,MEADOWBROOK RD,2,nan,42.6291405203344,-71.40196571609766,250173173021042
F_688513_3054259,RICHARDSON RD OFF,RICHARDSON RD OFF,nan,nan,42.628971421931226,-71.3798089145735,250173173011023
F_688595_3054526,RICHARDSON RD OFF,RICHARDSON RD OFF,nan,nan,42.62970371385528,-71.37950282143233,250173173011020
F_686981_3056143,66 WASHINGTON ST,WASHINGTON ST,66,nan,42.63414662535646,-71.38549204798488,250173173021010
F_684958_3056900,90 GROTON RD,GROTON RD,90,nan,42.63623092777122,-71.39300610329005,250173173021012
F_686802_3056649,GRANT ST,GRANT ST,nan,nan,42.63553567139441,-71.38615471248866,250173173021010
F_684827_3056890,90 GROTON RD,GROTON RD,90,nan,42.63620393912549,-71.39349296931574,250173173021014
F_689568_3057041,83 MIDDLESEX ST,MIDDLESEX ST,83,nan,42.636600673336496,-71.37587375413915,250173173012005
F_685071_3057186,90 GROTON RD,GROTON RD,90,nan,42.63701527910666,-71.39258483647588,250173173021012
F_689686_3057444,MIDDLESEX ST,MIDDLESEX ST,nan,nan,42.63770597229832,-71.37543305526171,250173173012001
F_689440_3057794,MIDDLESEX ST OFF,MIDDLESEX ST OFF,nan,nan,42.63866730113703,-71.37634537115426,250173173023008
F_679982_3058028,GROTON RD OFF,GROTON RD OFF,nan,nan,42.63934163656462,-71.41149347156167,250173173022066
F_683562_3061806,TYNGSBORO RD OFF,TYNGSBORO RD OFF,nan,nan,42.64969691761107,-71.39817212618381,250173173023002
F_678604_3062699,DUNSTABLE RD,DUNSTABLE RD,nan,nan,42.65216193635732,-71.41659764879299,250173173022014
F_695976_3048697,WIGGIN ST,WIGGIN ST,nan,nan,42.61367788557005,-71.35211410927046,250173172032016
F_683965_3051294,50 JORDAN ST,JORDAN ST,50,nan,42.62085222592079,-71.39672149553354,250173173011041
F_354690_2873797,0 CENTER ST,CENTER ST,0,nan,42.12845050992985,-72.61141375814904,250138109023044
F_354578_2874198,0 CENTER ST,CENTER ST,0,nan,42.12954682441386,-72.6118458757619,250138109023044
F_354875_2874336,0 CENTER ST,CENTER ST,0,nan,42.12993610649384,-72.61075769527694,250138109023044
F_356028_2878926,106 STONINA DR,STONINA DR,106,nan,42.1425719094518,-72.6067270121839,250138109024004
F_356083_2878980,0 STONINA DR,STONINA DR,0,nan,42.142722040100814,-72.60652681170927,250138109024004
F_356147_2879035,0 NONOTUCK AVE,NONOTUCK AVE,0,nan,42.14287523465643,-72.60629347520545,250138109024004
F_360240_2879108,291 ARMORY DR,ARMORY DR,291,nan,42.14322022283146,-72.59120603553201,250138108003017
F_356425_2881013,296 FRONT ST,FRONT ST,296,nan,42.14831262872681,-72.60536300650422,250138109011009
F_360573_2881085,725 FRONT ST,FRONT ST,725,nan,42.14865667907196,-72.5900714188071,250138108001008
F_360931_2881300,743 FRONT ST,FRONT ST,743,nan,42.1492591734902,-72.58876147274712,250138108001008
F_355594_2881318,0 FRONT ST,FRONT ST,0,nan,42.14911993607276,-72.60844177200194,250138109011004
F_360965_2881172,743 FRONT ST,FRONT ST,743,nan,42.1489091399084,-72.58863007792156,250138108001008
F_351165_2882874,0 MEDINA ST,MEDINA ST,0,nan,42.15323038135281,-72.6248486776487,250138111023033
F_362502_2883120,25 PINE ST,PINE ST,25,nan,42.15430802881736,-72.58305382750856,250138108002008
F_363338_2883435,39 PAINE AVE,PAINE AVE,39,nan,42.15520145806516,-72.57998564544617,250138107003004
F_360435_2883778,0 NELSON ST,NELSON ST,0,nan,42.15604126504974,-72.59070725579286,250138110004005
F_362344_2884270,30 CHURCH ST,CHURCH ST,30,nan,42.15745805298083,-72.58369036148801,250138108002018
F_360440_2884752,0 GRANBY RD,GRANBY RD,0,nan,42.1587140344984,-72.59073475116672,250138110004005
F_360102_2885094,0 GRANBY RD,GRANBY RD,0,nan,42.1596405929529,-72.59199741557846,250138110004005
F_361160_2885543,0 HEARTHSTONE TER,HEARTHSTONE TER,0,nan,42.16090972245684,-72.58811666467751,250138110004014
F_360003_2885505,0 GRANBY RD,GRANBY RD,0,nan,42.16076487144501,-72.59238193802915,250138110004005
F_359995_2885971,0 SIMONICH ST,SIMONICH ST,0,nan,42.162043263468114,-72.59243345491338,250138110004005
F_378356_2886616,0 OLD FULLER RD EXT,OLD FULLER RD EXT,0,nan,42.16443841563201,-72.52474395487555,250138106021053
F_359779_2886670,0 COLUMBA ST,COLUMBA ST,0,nan,42.163953678404695,-72.59326313142567,250138110004011
F_359844_2887350,0 COLUMBA ST,COLUMBA ST,0,nan,42.16582183809438,-72.5930555382952,250138110004003
F_353911_2887351,750 MEADOW ST,MEADOW ST,750,nan,42.165613859813725,-72.61493837781126,250138111022017
F_372409_2887620,39 SECOND AVE,SECOND AVE,39,nan,42.16699518631286,-72.54672357131304,250138106021047
F_351260_2887923,312 CHICOPEE ST,CHICOPEE ST,312,nan,42.16708787546609,-72.62474388318782,250138111022006
F_352832_2888443,0 MEETINGHOUSE RD,MEETINGHOUSE RD,0,nan,42.16857144904444,-72.61897089767234,250138111022005
F_354165_2889032,611 MEADOW ST,MEADOW ST,611,nan,42.17023549944088,-72.61408253361336,250138111022003
F_355148_2890227,0 REAR MCKINSTRY AVE,REAR MCKINSTRY AVE,0,nan,42.1735496605129,-72.6105140536818,250138111012030
F_357256_2891595,0 VIEW ST,VIEW ST,0,nan,42.17737839538996,-72.60280336501464,250138110001002
F_355187_2893661,0 MEADOW ST,MEADOW ST,0,nan,42.18297367056145,-72.61053512556374,250138111012003
F_355296_2893652,1154 GRATTAN ST,GRATTAN ST,1154,nan,42.18295286887136,-72.61013255772947,250138111012003
F_367210_2893674,1860 WESTOVER RD,WESTOVER RD,1860,nan,42.18343031180743,-72.56617876142307,250138106012014
F_367146_2893768,0 CASEY DR,CASEY DR,0,nan,42.18368604617287,-72.56641921714198,250138106012014
F_354735_2894113,620 CHICOPEE ST,CHICOPEE ST,620,nan,42.184197759547786,-72.61222444242236,250138111012021
F_354888_2894240,0 CHICOPEE ST,CHICOPEE ST,0,nan,42.18455170998386,-72.61166607301695,250138111012020
F_367171_2894443,0 PENDLETON AVE,PENDLETON AVE,0,nan,42.18553905919143,-72.56635811795952,250138106012014
F_374758_2892189,570 BURNETT RD,BURNETT RD,570,nan,42.179611069036966,-72.5382645997444,250138106021000
F_366344_2896911,0 BOUTIN ST,BOUTIN ST,0,nan,42.192282668216805,-72.56952350739193,250138113025000
F_364679_2898130,221 JACOB ST,JACOB ST,221,nan,42.19557006009806,-72.57572388485625,250138113012020
F_364403_2898348,0 VADNAIS ST,VADNAIS ST,0,nan,42.1961586794798,-72.57675249945072,250138113011005
F_361411_2898795,0 PROSPECT ST,PROSPECT ST,0,nan,42.19728103619291,-72.58781430833278,250138113011018
F_363305_2898457,0 TELEGRAPH AVE,TELEGRAPH AVE,0,nan,42.19641966036613,-72.58080932751449,250138113011000
F_365153_2903311,50 BEAUDRY AVE,BEAUDRY AVE,50,nan,42.20980271125931,-72.57421557889829,250138113013043
F_358006_2897724,0 CHICOPEE ST,CHICOPEE ST,0,nan,42.19422245328256,-72.60032830250204,250138113013041
F_363527_2898842,0 TELEGRAPH AVE,TELEGRAPH AVE,0,nan,42.19748378673722,-72.5800081112101,250138113011000
F_363828_2898683,0 TELEGRAPH AVE,TELEGRAPH AVE,0,nan,42.19705795590177,-72.5788899453031,250138113011000
F_798499_2653144,BARNEYS JOY RD,BARNEYS JOY RD,nan,nan,41.52712368537919,-70.98021655445264,250056533041033
F_797531_2652219,BARNEYS JOY RD,BARNEYS JOY RD,nan,nan,41.52460141017558,-70.98377195112941,250056533041033
F_793719_2689276,128 CHASE RD,CHASE RD,128,nan,41.62635681061573,-70.9968939437469,250059855001021
F_810097_2679686,SOL-E-MAR ST,SOL-E-MAR ST,nan,nan,41.59975885982024,-70.93722348091205,250056533013005
F_799920_2717711,HIGH HILL RD,HIGH HILL RD,nan,nan,41.70428624301447,-70.973572096948,250056531022016
F_790618_2691986,OLD WESTPORT RD,OLD WESTPORT RD,nan,nan,41.63384331259893,-71.00817863388397,250056531013061
F_785094_2694142,740 STATE RD,STATE RD,740,nan,41.63984550181025,-71.02834132908343,250056531013030
F_797318_2694201,262 STATE RD,STATE RD,262,nan,41.63981312011941,-70.9836216474336,250056531011018
F_785035_2694667,STATE RD,STATE RD,nan,nan,41.64128712143817,-71.02854655045039,250056531013030
F_798033_2695251,KINGSTON ST,KINGSTON ST,nan,nan,41.64268265097057,-70.98098263158295,250056531011020
F_797728_2695077,1 ANDERSON WY,ANDERSON WY,1,nan,41.64221024279875,-70.98210231042391,250056531011018
F_797115_2699981,FAUNCE CORNER RD,FAUNCE CORNER RD,nan,nan,41.6556781327154,-70.9842364127085,250056531022037
F_795061_2699959,FAUNCE CORNER RD,FAUNCE CORNER RD,nan,nan,41.65565159511199,-70.99175278935084,250056531022038
F_796576_2700290,235 FAUNCE CORNER RD,FAUNCE CORNER RD,235,nan,41.65653502646017,-70.98620188358726,250056531022037
F_797220_2700451,FAUNCE CORNER RD,FAUNCE CORNER RD,nan,nan,41.65696617711094,-70.98384179474331,250056531022037
F_796718_2700756,247 FAUNCE CORNER RD,FAUNCE CORNER RD,247,nan,41.657811488564754,-70.9856719950911,250056531022037
F_795884_2701012,265 FAUNCE CORNER RD,FAUNCE CORNER RD,265,nan,41.65852777110989,-70.98871821319692,250056531022037
F_794854_2700762,266 FAUNCE CORNER RD,FAUNCE CORNER RD,266,nan,41.657858594288,-70.9924927504758,250056531022038
F_793978_2701261,HIXVILLE RD,HIXVILLE RD,nan,nan,41.6592422237802,-70.99568748100936,250056531022022
F_796547_2701048,251 FAUNCE CORNER RD,FAUNCE CORNER RD,251,nan,41.65861563134437,-70.98629129527421,250056531022037
F_788014_2701271,HIXVILLE RD,HIXVILLE RD,nan,nan,41.65936434086162,-71.01751170736793,250056531021026
F_786521_2701412,REED RD,REED RD,nan,nan,41.65977432316557,-71.02297226111455,250056531021026
F_797361_2701412,FAUNCE CORNER RD,FAUNCE CORNER RD,nan,nan,41.65960103786138,-70.98330454216465,250056531022020
F_788388_2701592,HIXVILLE RD,HIXVILLE RD,nan,nan,41.66023942618955,-71.01613643999158,250056531021023
F_787561_2701556,HIXVILLE RD,HIXVILLE RD,nan,nan,41.66015346782437,-71.01916352227703,250056531021026
F_782577_2701799,REED RD,REED RD,nan,nan,41.660895958678935,-71.03739724162857,250056531021009
F_787922_2701710,HIXVILLE RD,HIXVILLE RD,nan,nan,41.66057048758611,-71.01783928819475,250056531021023
F_779398_2701947,HIXVILLE RD,HIXVILLE RD,nan,nan,41.661348826010986,-71.0490278132174,250056531021013
F_787935_2702124,HIXVILLE RD,HIXVILLE RD,nan,nan,41.66170639910037,-71.01778315039361,250056531021023
F_786432_2702288,HIXVILLE RD,HIXVILLE RD,nan,nan,41.6621796391612,-71.02328003067234,250056531021023
F_797495_2699926,FAUNCE CORNER RD,FAUNCE CORNER RD,nan,nan,41.655520885989,-70.98284715627433,250056531022037
F_788073_2703164,HIXVILLE RD,HIXVILLE RD,nan,nan,41.66455826095249,-71.0172565989379,250056531021023
F_787833_2703768,HIXVILLE RD,HIXVILLE RD,nan,nan,41.66621950286769,-71.01812243082965,250056531021023
F_793827_2703334,400 FAUNCE CORNER RD,FAUNCE CORNER RD,400,nan,41.66493346275458,-70.9961952371647,250056531022022
F_785970_2703853,HIXVILLE RD,HIXVILLE RD,nan,nan,41.66648144187422,-71.02493883611844,250056531021021
F_799099_2710293,HIGH HILL RD,HIGH HILL RD,nan,nan,41.68394344416589,-70.97674518445231,250056531022019
F_798315_2710319,HIGH HILL RD,HIGH HILL RD,nan,nan,41.68402795640071,-70.97961464414215,250056531022018
F_777361_2711894,OLD FALL RIVER RD,OLD FALL RIVER RD,nan,nan,41.688675101992985,-71.05629283854715,250056531021001
F_778873_2712944,N HIXVILLE RD,N HIXVILLE RD,nan,nan,41.691534833924536,-71.05073707730098,250056531021001
F_778191_2712577,OLD FALL RIVER RD,OLD FALL RIVER RD,nan,nan,41.69053752842795,-71.05324106609594,250056531021001
F_799067_2712501,HIGH HILL RD,HIGH HILL RD,nan,nan,41.6900032336028,-70.97681274913305,250056531022016
F_799037_2713197,HIGH HILL RD,HIGH HILL RD,nan,nan,41.69191371961478,-70.97690695541218,250056531022016
F_798292_2713259,HIGH HILL RD,HIGH HILL RD,nan,nan,41.6920963670487,-70.97963318107905,250056531022016
F_799040_2713548,HIGH HILL RD,HIGH HILL RD,nan,nan,41.6928768923141,-70.97688809032869,250056531022016
F_799132_2714014,HIGH HILL RD,HIGH HILL RD,nan,nan,41.69415415250247,-70.9765407821335,250056531022016
F_798932_2714525,HIGH HILL RD,HIGH HILL RD,nan,nan,41.69555981768587,-70.97726158580708,250056531022016
F_798565_2719709,HIGH HILL RD,HIGH HILL RD,nan,nan,41.70979204596794,-70.97848927804411,250056531022016
F_798076_2722124,HIGH HILL RD,HIGH HILL RD,nan,nan,41.71642753981797,-70.98022622066328,250056531022002
F_798981_2721635,SAMUEL BARNET BLVD,SAMUEL BARNET BLVD,nan,nan,41.71507043181256,-70.97692252786977,250056531022016
F_798807_2722409,HIGH HILL RD,HIGH HILL RD,nan,nan,41.71719738778493,-70.97754244717076,250056531022000
F_793794_2689424,CHASE RD,CHASE RD,nan,nan,41.62676174253805,-70.99661643842026,250059855001022
F_791229_2688440,285 OLD WESTPORT RD,OLD WESTPORT RD,285,nan,41.62410257159683,-71.00601877346335,250059855001010
F_788342_2662432,HORSENECK RD,HORSENECK RD,nan,nan,41.55277591282831,-71.01711605823246,250056533041015
M_175664_870627,0  NORTHWEST MAIN ST,NORTHWEST MAIN ST,0,nan,42.08567304022805,-71.79413824936299,250277521003015
M_174370_870189,0  WEBSTER ST,WEBSTER ST,0,nan,42.08168840684148,-71.80975888420333,250277521003015
M_175985_870406,0  STATE FOREST,STATE FOREST,0,nan,42.083693237725086,-71.79024940797302,250277521003015
M_176221_870083,0  STATE FOREST,STATE FOREST,0,nan,42.08079240382911,-71.7873839402428,250277521003015
M_175574_869954,0  STATE FOREST,STATE FOREST,0,nan,42.0796110998707,-71.79519787866768,250277521003015
M_175508_870298,0  NORTHWEST MAIN ST,NORTHWEST MAIN ST,0,nan,42.08270613548033,-71.79600993603171,250277521003015
M_176034_869632,0  STATE FOREST,STATE FOREST,0,nan,42.07672627121863,-71.78962542606972,250277521003015
M_175621_869432,0  STATE FOREST,STATE FOREST,0,nan,42.074912898728925,-71.79460808017093,250277521003029
M_175243_869795,0  STATE FOREST,STATE FOREST,0,nan,42.07816921006314,-71.79919137183703,250277521003015
M_174060_869722,0  WEBSTER ST,WEBSTER ST,0,nan,42.077473725631855,-71.81348470331808,250277521003015
M_173353_869415,0  WEBSTER ST,WEBSTER ST,0,nan,42.07468603680791,-71.82201470634661,250277521003015
M_173938_869235,0  WEBSTER ST,WEBSTER ST,0,nan,42.07308512918561,-71.8149373285713,250277521003015
M_174152_869116,0  WEBSTER ST,WEBSTER ST,0,nan,42.07202083458798,-71.81234607609775,250277521003015
M_174521_868949,0  WEBSTER ST,WEBSTER ST,0,nan,42.07052938048805,-71.80787985150523,250277521003015
M_175459_869111,0  STATE FOREST,STATE FOREST,0,nan,42.0720178196636,-71.79655226714513,250277521003015
M_176085_868870,0  STATE FOREST,STATE FOREST,0,nan,42.06986739404648,-71.78897790537371,250277521003035
M_176350_868909,0  STATE FOREST,STATE FOREST,0,nan,42.070226557212415,-71.78577736976453,250277521003035
M_176173_869188,154  WALLIS ST,WALLIS ST,154,nan,42.07273309024492,-71.78792753279717,250277521003035
M_176840_868153,0  WALLIS ST,WALLIS ST,0,nan,42.063434760916046,-71.77982647461515,250277521003035
M_176231_868630,0  STATE FOREST,STATE FOREST,0,nan,42.067711065523525,-71.78720395677826,250277521003035
M_175630_868280,0  STATE FOREST,STATE FOREST,0,nan,42.06454149512192,-71.79445126268075,250277521003015
M_174050_867573,271  WEBSTER ST,WEBSTER ST,271,nan,42.058125533887285,-71.81351009606672,250277521003015
M_174024_868365,289  WEBSTER ST,WEBSTER ST,289,nan,42.06525520733108,-71.81385941559363,250277521003015
M_175212_867541,0  STATE FOREST,STATE FOREST,0,nan,42.0578750230616,-71.79947037003302,250277521003015
M_175173_867706,0  STATE FOREST,STATE FOREST,0,nan,42.05935931874988,-71.79994854535623,250277521003015
M_174585_867564,23  STATE FOREST,STATE FOREST,23,nan,42.05806202670177,-71.80704625813985,250277521003015
M_174792_868056,0  WEBSTER ST,WEBSTER ST,0,nan,42.06249828506734,-71.80456667439447,250277521003015
M_175536_867976,0  STATE FOREST,STATE FOREST,0,nan,42.06180159364679,-71.79557428323207,250277521003015
M_175488_867726,0  STATE FOREST,STATE FOREST,0,nan,42.0595492927079,-71.79614372803829,250277521003015
M_177215_867386,0  CEDAR ST,CEDAR ST,0,nan,42.05654028083005,-71.77526573062022,250277521003056
M_182555_867943,33  RAILROAD AVE,RAILROAD AVE,33,nan,42.06169205660334,-71.71077008718173,250277521002051
M_181651_867456,0  NY NEW HAVEN + HARTFORD RR,NY NEW HAVEN + HARTFORD RR,0,nan,42.05728684937405,-71.7216768545707,250277521001053
M_183460_867761,0  NY NEW HAVEN + HARTFORD RR,NY NEW HAVEN + HARTFORD RR,0,nan,42.06007307913487,-71.69983078758253,250277521002043
M_184440_867390,0  NY NEW HAVEN + HARTFORD RR,NY NEW HAVEN + HARTFORD RR,0,nan,42.05675293457398,-71.68798091419146,250277521001004
M_180959_866856,0  NY NEW HAVEN + HARTFORD RR,NY NEW HAVEN + HARTFORD RR,0,nan,42.05186841028533,-71.73001741683254,250277521001044
M_177398_867103,182  WEBSTER ST,WEBSTER ST,182,nan,42.053997664666106,-71.77304397721652,250277521004045
M_177512_866842,0  WEBSTER ST,WEBSTER ST,0,nan,42.05165110004965,-71.77165676503442,250277521004045
M_176933_867075,0  WEBSTER ST,WEBSTER ST,0,nan,42.053732035002845,-71.7786602757023,250277521004045
M_176525_867024,0  WEBSTER ST,WEBSTER ST,0,nan,42.05326076393152,-71.78358702439039,250277521004045
M_176157_867048,0  WEBSTER ST,WEBSTER ST,0,nan,42.053465739336495,-71.78803355137352,250277521004033
M_176526_867235,0  WEBSTER ST,WEBSTER ST,0,nan,42.05516047325971,-71.78358341858745,250277521004034
M_175568_867288,0  STATE FOREST,STATE FOREST,0,nan,42.05560838258434,-71.79515889776565,250277521004033
M_175763_867007,0  WEBSTER ST,WEBSTER ST,0,nan,42.05308452972972,-71.79279150119946,250277521004033
M_174850_867266,0  WEBSTER ST,WEBSTER ST,0,nan,42.05538761403347,-71.8038319163976,250277521004033
M_174137_867235,0  WEBSTER ST,WEBSTER ST,0,nan,42.05508532429028,-71.81244407321103,250277521004033
M_173973_867422,0  WEBSTER ST,WEBSTER ST,0,nan,42.056763498127125,-71.81443362386757,250277521004037
M_174158_866740,0  WEBSTER ST,WEBSTER ST,0,nan,42.05062942716854,-71.81216849449775,250277521004033
M_174246_866240,0  WEBSTER ST,WEBSTER ST,0,nan,42.04613071358194,-71.81108344549025,250277521004033
M_174567_866670,0  WEBSTER ST,WEBSTER ST,0,nan,42.05001257210435,-71.80722481722876,250277521004033
M_174881_866882,0  WEBSTER ST,WEBSTER ST,0,nan,42.05193137369054,-71.80344091173359,250277521004033
M_174991_866568,0  WEBSTER ST,WEBSTER ST,0,nan,42.049107878888336,-71.80209867357422,250277521004033
M_174989_866357,0  WEBSTER ST,WEBSTER ST,0,nan,42.04720813564354,-71.80211380491369,250277521004033
M_175994_866454,0  STATE FOREST,STATE FOREST,0,nan,42.04811285310144,-71.78997825021894,250277521004033
M_180460_866537,0  NY NEW HAVEN + HARTFORD RR,NY NEW HAVEN + HARTFORD RR,0,nan,42.04898410285416,-71.73603469875654,250277521003066
M_178729_865215,0  NY NEW HAVEN + HARTFORD RR,NY NEW HAVEN + HARTFORD RR,0,nan,42.03703678048778,-71.75689620816846,250277521003069
M_177933_865698,0   SOUTHWEST MAIN ST,SOUTHWEST MAIN ST,0,nan,42.04136335847779,-71.76652790361995,250277521004018
M_177545_865674,326  SOUTHWEST MAIN ST,SOUTHWEST MAIN ST,326,nan,42.04113626921876,-71.77121326168248,250277521004018
M_176665_865851,0  SOUTHWEST MAIN ST,SOUTHWEST MAIN ST,0,nan,42.042704155996,-71.78184895931263,250277521004045
M_175663_865919,0  SOUTHWEST MAIN ST,SOUTHWEST MAIN ST,0,nan,42.04328592602356,-71.79395423111212,250277521004033
M_175992_866008,0   SOUTHWEST MAIN ST,SOUTHWEST MAIN ST,0,nan,42.04409735262415,-71.78998409311698,250277521004033
M_174838_866095,0  WEBSTER ST,WEBSTER ST,0,nan,42.04484446169518,-71.80392647774298,250277521004033
M_175124_865853,0  WEBSTER ST,WEBSTER ST,0,nan,42.04267480387625,-71.80046167627546,250277521004033
M_174424_866048,0  WEBSTER ST,WEBSTER ST,0,nan,42.04440791973224,-71.80892499673314,250277521004033
M_174642_865304,0  HIGH ST,HIGH ST,0,nan,42.03771659724225,-71.80625959490874,250277521004033
M_175073_865394,0  STATE FOREST,STATE FOREST,0,nan,42.03854070252892,-71.80105810057537,250277521004033
M_175860_865589,0  STATE FOREST,STATE FOREST,0,nan,42.04032094739904,-71.79156116236616,250277521004033
M_176333_864718,0  STATE FOREST,STATE FOREST,0,nan,42.03249353981299,-71.78581309574167,250277521004049
M_175914_865047,0  STATE FOREST,STATE FOREST,0,nan,42.03544285343828,-71.79088663469166,250277521004033
M_176141_865667,0  STATE FOREST,STATE FOREST,0,nan,42.04103179714757,-71.78817047357914,250277521004033
M_176253_865806,0  STATE FOREST,STATE FOREST,0,nan,42.0422866453151,-71.7868233863121,250277521004033
M_176391_865746,0  STATE FOREST,STATE FOREST,0,nan,42.0417506171359,-71.78515417065188,250277521004033
M_176450_865853,0  STATE FOREST,STATE FOREST,0,nan,42.04271573673353,-71.78444587205544,250277521004033
M_177598_865194,0  STATE FOREST,STATE FOREST,0,nan,42.03681622855981,-71.77055473854884,250277521004018
M_177116_865412,0  STATE FOREST,STATE FOREST,0,nan,42.03876502215558,-71.7763844678549,250277521004018
M_178022_865288,0  STATE FOREST,STATE FOREST,0,nan,42.03767452762335,-71.76543754732046,250277521004018
M_178137_865513,0  STATE FOREST,STATE FOREST,0,nan,42.03970347123153,-71.76405706534842,250277521004018
M_178106_864354,0  STATE FOREST,STATE FOREST,0,nan,42.02926784098115,-71.76438808556998,250277521004022
M_178071_864601,0  STATE FOREST,STATE FOREST,0,nan,42.03149066706025,-71.76481999718635,250277521004016
M_175955_862621,0  SOUTHERN N.E.TRUNK LINE,SOUTHERN N.E.TRUNK LINE,0,nan,42.01360222406957,-71.79029176794782,250277521004022
M_178076_864946,93  WALLUM LAKE RD,WALLUM LAKE RD,93,nan,42.0345969282362,-71.76477254918326,250277521004017
M_178679_864404,0  STATE FOREST,STATE FOREST,0,nan,42.02973378531694,-71.75747050371714,250277521004014
M_176027_864485,0  SOUTHWEST MAIN ST,SOUTHWEST MAIN ST,0,nan,42.03038649275503,-71.78949890788101,250277521004049
M_175749_864422,0  SOUTHWEST MAIN ST,SOUTHWEST MAIN ST,0,nan,42.02981074411449,-71.79285340870969,250277521004033
M_175460_864479,0  SOUTHWEST MAIN ST,SOUTHWEST MAIN ST,0,nan,42.03031494226005,-71.7963457163846,250277521004033
M_175493_864835,0  SOUTHWEST MAIN ST,SOUTHWEST MAIN ST,0,nan,42.03352112759417,-71.79596212761574,250277521004033
M_175667_864547,0  SOUTHWEST MAIN ST,SOUTHWEST MAIN ST,0,nan,42.03093361050367,-71.79384882749959,250277521004033
M_175960_864676,0  SOUTHWEST MAIN ST,SOUTHWEST MAIN ST,0,nan,42.0321040620927,-71.79031584684037,250277521004033
M_175185_864956,0   SOUTHWEST MAIN ST,SOUTHWEST MAIN ST,0,nan,42.03460083698084,-71.79968683534736,250277521004033
M_175263_864580,0  SOUTHWEST MAIN ST,SOUTHWEST MAIN ST,0,nan,42.03121808267431,-71.79872894605526,250277521004033
M_175988_864264,0  WEBSTER ST,WEBSTER ST,0,nan,42.02839558268933,-71.78996079734397,250277521004049
M_175956_863952,0  SOUTHWEST MAIN ST,SOUTHWEST MAIN ST,0,nan,42.02558558911898,-71.79033439124882,250277521004049
M_175575_863988,0  SOUTHWEST MAIN ST,SOUTHWEST MAIN ST,0,nan,42.02589793750146,-71.79493648196295,250277521004033
M_175265_864060,0  SOUTHWEST MAIN ST,SOUTHWEST MAIN ST,0,nan,42.0265364592102,-71.79868280445675,250277521004033
M_176388_863941,0  SOUTHWEST MAIN ST,SOUTHWEST MAIN ST,0,nan,42.02549967339512,-71.78511753092616,250277521004049
M_176851_864248,0  STATE FOREST,STATE FOREST,0,nan,42.0282774693015,-71.77953894379601,250277521004049
M_177379_864470,0  STATE FOREST,STATE FOREST,0,nan,42.03029159286773,-71.77317163659957,250277521004017
M_177412_863955,0  STATE FOREST,STATE FOREST,0,nan,42.02565586815765,-71.77275324360882,250277521004023
M_178060_863786,173  WALLUM LAKE RD,WALLUM LAKE RD,173,nan,42.02415270565865,-71.76492226627359,250277521004022
M_178064_863914,167  WALLUM LAKE RD,WALLUM LAKE RD,167,nan,42.025305234740685,-71.76487876681533,250277521004022
M_178056_863209,0  SHORE RD,SHORE RD,0,nan,42.01895771098381,-71.76494892375823,250277521004022
M_178051_863238,0  SHORE RD,SHORE RD,0,nan,42.01921866584348,-71.76501038057192,250277521004022
M_178044_863268,0  SHORE RD,SHORE RD,0,nan,42.01948856796617,-71.76509602319054,250277521004022
M_178161_863380,185  WALLUM LAKE RD,WALLUM LAKE RD,185,nan,42.02050019881968,-71.7636875585493,250277521004022
M_177338_863224,0  STATE FOREST,STATE FOREST,0,nan,42.0190723516321,-71.77361848225543,250277521004022
M_175952_863654,0  STATE FOREST,STATE FOREST,0,nan,42.02290249759544,-71.79037044156141,250277521004049
M_175284_863280,0  STATE FOREST,STATE FOREST,0,nan,42.01951452312409,-71.79842042273646,250277521004041
M_175365_863634,0  STATE FOREST,STATE FOREST,0,nan,42.02270422169517,-71.79745734406096,250277521004033
M_175571_863753,0  STATE FOREST,STATE FOREST,0,nan,42.02378204942071,-71.79497496900075,250277521004033
M_175878_863181,0  SOUTHWEST MAIN ST,SOUTHWEST MAIN ST,0,nan,42.018641686465216,-71.79124445522295,250277521004022
M_176368_862231,0  STATE FOREST,STATE FOREST,0,nan,42.01010349629332,-71.78528996867917,250277521004022
M_177955_862708,0  SHORE RD,SHORE RD,0,nan,42.01444424264574,-71.76614950168462,250277521004043
M_178001_862916,0  SHORE RD,SHORE RD,0,nan,42.01631821364249,-71.76560196634482,250277521004022
M_178009_862937,0  SHORE RD,SHORE RD,0,nan,42.01650750652151,-71.76550616925445,250277521004022
M_178014_862952,0  SHORE RD,SHORE RD,0,nan,42.01664269565595,-71.765446366233,250277521004022
M_178020_862966,0  SHORE RD,SHORE RD,0,nan,42.0167689095007,-71.76537445201956,250277521004022
M_178048_863011,0  SHORE RD,SHORE RD,0,nan,42.01717484037639,-71.76503808576308,250277521004022
M_178054_863024,0  SHORE RD,SHORE RD,0,nan,42.0172920506887,-71.76496613263232,250277521004022
M_178059_863038,0  SHORE RD,SHORE RD,0,nan,42.01741823626059,-71.76490629022828,250277521004022
M_178063_863069,0  SHORE RD,SHORE RD,0,nan,42.01769744938876,-71.76485915844628,250277521004022
M_178065_863098,0  SHORE RD,SHORE RD,0,nan,42.01795860004789,-71.76483609848052,250277521004022
M_178065_863120,0  SHORE RD,SHORE RD,0,nan,42.018156671920295,-71.76483692320828,250277521004022
M_178065_863142,0  SHORE RD,SHORE RD,0,nan,42.01835474378799,-71.76483774794117,250277521004022
M_178063_863157,0  SHORE RD,SHORE RD,0,nan,42.01848973687422,-71.76486245766188,250277521004022
M_178061_863172,0  SHORE RD,SHORE RD,0,nan,42.01862472995292,-71.76488716748743,250277521004022
M_178059_863187,0  SHORE RD,SHORE RD,0,nan,42.01875972302411,-71.7649118774179,250277521004022
M_176517_862479,0  STATE FOREST,STATE FOREST,0,nan,42.01234077947811,-71.7835011767152,250277521004022
M_258805_931669,1  CHEBACCO TERRACE,CHEBACCO TERRACE,1,01929,42.6333716977439,-70.78306309194157,250092221002012
M_258532_931117,0  MARTIN ST REAR,MARTIN ST REAR,0,01929,42.62842330068469,-70.78644758687845,250092221002024
M_260763_928183,0  SOUTHERN AVE REAR,SOUTHERN AVE REAR,0,01929,42.60184068766099,-70.75956172040333,250092221003000
M_261552_928109,0  ROUTE 128,ROUTE 128,0,01929,42.60111249229638,-70.74995564303221,250092221003000
M_236933_839961,0 LOCUST ST,LOCUST ST,0,nan,41.809087106569706,-71.05554113067322,250056171011016
M_239236_838082,94 HOWLAND RD,HOWLAND RD,94,nan,41.79205841350454,-71.02795207257569,250056171012002
M_238453_837879,0-REAR HOWLAND RD,HOWLAND RD,0,nan,41.79026935843552,-71.03738539716873,250056171012002
M_238896_838551,2 LINGONBERRY LN,LINGONBERRY LN,2,nan,41.796297851228736,-71.03201156852603,250056171012002
M_238800_838322,10 LINGONBERRY LN,LINGONBERRY LN,10,nan,41.79424082106409,-71.0331816763689,250056171012002
M_238661_838335,12 LINGONBERRY LN,LINGONBERRY LN,12,nan,41.79436470157091,-71.03485315483034,250056171012002
M_238689_838281,14 LINGONBERRY LN,LINGONBERRY LN,14,nan,41.79387714547415,-71.03451982718342,250056171012002
M_238717_838184,15 LINGONBERRY LN,LINGONBERRY LN,15,nan,41.79300244438086,-71.0341893298676,250056171012002
M_238774_838194,13 LINGONBERRY LN,LINGONBERRY LN,13,nan,41.793089673186905,-71.03350290905034,250056171012002
M_238827_838197,11 LINGONBERRY LN,LINGONBERRY LN,11,nan,41.79311407166491,-71.03286507142194,250056171012002
M_238882_838213,2 REDBERRY LN,REDBERRY LN,2,nan,41.79325541134208,-71.03220231362118,250056171012002
M_238940_838236,3 REDBERRY LN,REDBERRY LN,3,nan,41.793459622245216,-71.03150299731203,250056171012002
M_238942_838317,1 REDBERRY LN,REDBERRY LN,1,nan,41.79418879446117,-71.03147358229421,250056171012002
M_238944_838371,5 LINGONBERRY LN,LINGONBERRY LN,5,nan,41.794674876280375,-71.03144595108208,250056171012002
M_238955_838456,3 LINGONBERRY LN,LINGONBERRY LN,3,nan,41.79543961661695,-71.03130798800672,250056171012002
M_238943_838520,0 LINGONBERRY LN,LINGONBERRY LN,0,nan,41.796016424362776,-71.03144813473226,250056171012002
M_239229_838626,94 HOWLAND RD,HOWLAND RD,94,nan,41.79695658186985,-71.0280000710747,250056171012002
M_239607_837908,0 HOWLAND RD,HOWLAND RD,0,nan,41.790473258444486,-71.02350036213504,250056171012002
M_239273_838643,96 HOWLAND RD,HOWLAND RD,96,nan,41.79710744530816,-71.02746954458145,250056171012002
M_239055_838603,86 HOWLAND RD,HOWLAND RD,86,nan,41.79675815474421,-71.03009510608585,250056171012002
M_237340_838161,17 SLAB BRIDGE RD,SLAB BRIDGE RD,17,nan,41.792861868529954,-71.05075739141499,250056171012002
M_237880_837936,0 SLAB BRIDGE RD,SLAB BRIDGE RD,0,nan,41.79081032164957,-71.04427516389526,250056171012002
M_237848_837743,0 SLAB BRIDGE RD,SLAB BRIDGE RD,0,nan,41.78907421252343,-71.04467253544279,250056171012002
M_235107_837472,0 S MAIN ST,S MAIN ST,0,nan,41.786761266107206,-71.07766350865383,250056171013006
M_235142_837688,72 S MAIN ST,S MAIN ST,72,nan,41.78870443408044,-71.07722958700215,250056171013006
M_238064_837301,0 SLAB BRIDGE RD,SLAB BRIDGE RD,0,nan,41.78508431795539,-71.04210255933094,250056171012002
M_238060_837096,85 SLAB BRIDGE RD,SLAB BRIDGE RD,85,nan,41.78323882295396,-71.04216391394856,250056171012002
M_247468_837155,0 MIDDLEBORO RD,MIDDLEBORO RD,0,nan,41.78325916485442,-70.928990325095,250056171022012
M_238814_836237,0 SLAB BRIDGE RD,SLAB BRIDGE RD,0,nan,41.7754681418614,-71.0331505386998,250056171012002
M_234792_835177,0 COPICUT RD,COPICUT RD,0,nan,41.76611248342925,-71.08158832245128,250056171013077
M_235616_835564,0 COPICUT RD,COPICUT RD,0,nan,41.769559968326064,-71.07165561803362,250056171015000
M_233911_835866,0 S MAIN ST,S MAIN ST,0,nan,41.77235423691639,-71.09214352259738,250056171013043
M_233796_835495,0 S MAIN ST,S MAIN ST,0,nan,41.76901892144595,-71.09354789941892,250056171013046
M_233052_834940,0 S MAIN ST,S MAIN ST,0,nan,41.764053604818784,-71.10252668740482,250056171013043
M_233670_835235,0 S MAIN ST,S MAIN ST,0,nan,41.76668343506968,-71.09507807660688,250056171013046
M_233930_835223,0 S MAIN ST,S MAIN ST,0,nan,41.766564238616304,-71.09195200429163,250056171013046
M_233752_835005,0 S MAIN ST,S MAIN ST,0,nan,41.76460914556856,-71.09410510611377,250056171013046
M_233602_835020,0 ROUTE 24,ROUTE 24,0,nan,41.76475060886815,-71.09590809489147,250056171013046
M_238986_834621,0 BULLOCK RD,BULLOCK RD,0,nan,41.76091022066698,-71.03118861830141,250056171013061
M_239384_835026,0-REAR BULLOCK RD,BULLOCK RD,0,nan,41.76453678462344,-71.02637567546671,250056171013061
M_239136_835123,0 BULLOCK RD,BULLOCK RD,0,nan,41.76542246974335,-71.0293515780152,250056171013061
M_239178_835190,0 SLAB BRIDGE RD,SLAB BRIDGE RD,0,nan,41.76602360704961,-71.02884204677923,250056171013061
M_244992_835256,19 BRALEY RD,BRALEY RD,19,nan,41.76630722269035,-70.95891910888909,250056171022048
M_244459_835139,19 BRALEY RD,BRALEY RD,19,nan,41.76528409586357,-70.96533770185857,250056171021013
M_240759_834045,0 BULLOCK RD,BULLOCK RD,0,nan,41.75563455863301,-71.0099083346878,250056171021020
M_239607_833995,0 BULLOCK RD,BULLOCK RD,0,nan,41.7552431435668,-71.02376320135168,250056171013068
M_233480_835556,0 S MAIN ST,S MAIN ST,0,nan,41.7695816224777,-71.0973447956482,250056171013043
M_237910_835313,108 SLAB BRIDGE RD,SLAB BRIDGE RD,108,nan,41.76719306234265,-71.04408292063812,250056171013060
F_610401_2885870,388  PROVIDENCE ROAD,PROVIDENCE ROAD,388,01519,42.16684651156246,-71.66881559402141,250277381003024
F_609890_2886500,370  PROVIDENCE ROAD,PROVIDENCE ROAD,370,01519,42.16857253560998,-71.67070516307116,250277381003024
F_616184_2886887,99  BUTTERCUP LANE,VIOLET LANE,99,01519,42.16966673784767,-71.64749040231473,250277381003000
F_607702_2887770,9  DEPOT STREET,DEPOT STREET,9,01519,42.1720453042181,-71.67878604419015,250277381003024
F_605029_2888278,123  FERRY STREET,FERRY STREET,123,01519,42.17342353205595,-71.68865084845574,250277381002006
F_604838_2888342,117 REAR FERRY STREET,FERRY STREET,117 REAR,01519,42.1735979960431,-71.6893559842061,250277381002006
F_604383_2888945,41  SAMPSON STREET,SAMPSON STREET,41,01519,42.17524993202481,-71.69103949609004,250277381002006
F_600938_2889295,29  LELAND HILL ROAD,LELAND HILL ROAD,29,01519,42.17618850489021,-71.7037517738806,250277381002013
F_599610_2889104,4  MESSIER STREET,MESSIER STREET,4,01519,42.175655563508926,-71.70864934079474,250277381002015
F_605286_2889413,14  ARCADIA STREET,ARCADIA STREET,14,01519,42.176539693781706,-71.68771197304233,250277381002002
F_608667_2890918,144 REAR KEITH HILL ROAD,KEITH HILL ROAD,144 REAR,01519,42.18068937219758,-71.67525003162432,250277381003013
F_598919_2892169,33  FOLLETTE STREET,FOLLETTE STREET,33,01519,42.18406169223401,-71.7112265751461,250277381001030
F_603232_2892768,25 REAR TRINITY AVENUE,TRINITY AVENUE,25 REAR,01519,42.18573363797306,-71.69531802855332,250277382011011
F_603252_2896546,37  PLEASANT STREET,PLEASANT STREET,37,01519,42.19610111754745,-71.69527614711434,250277382011011
F_603351_2896683,35  PLEASANT STREET,PLEASANT STREET,35,01519,42.19647768550621,-71.69491195437028,250277382011011
F_603313_2896887,33  PLEASANT STREET,PLEASANT STREET,33,01519,42.1970372507547,-71.69505391140838,250277382011011
F_603540_2896400,51  PLEASANT STREET,PLEASANT STREET,51,01519,42.19570227812353,-71.69421208956258,250277382011011
F_604229_2899454,71  PROVIDENCE ROAD,PROVIDENCE ROAD,71,01519,42.204087140601054,-71.69169475954122,250277382022043
F_603551_2900006,44  MILLBURY STREET,MILLBURY STREET,44,01519,42.20559769258583,-71.69420179399911,250277382012028
F_608985_2900767,10  PIGEON HILL DRIVE,PIGEON HILL DRIVE,10,01519,42.20771817471652,-71.6741509656787,250277382022029
F_609125_2901158,30 SIDE WOODSIDE DRIVE,WOODSIDE DRIVE,30 SIDE,01519,42.20879191329713,-71.67363715486087,250277382022029
F_600974_2902371,80  BRIGHAM HILL ROAD,BRIGHAM HILL ROAD,80,01519,42.21207106251983,-71.70373418660076,250277382012039
F_605415_2902319,40  WORCESTER STREET,WORCESTER STREET,40,01519,42.211956305330034,-71.68734063645435,250277382022018
F_604478_2902806,67  WORCESTER STREET,WORCESTER STREET,67,01519,42.2132869961591,-71.69080341303975,250277382022026
F_597864_2902920,139  BRIGHAM HILL ROAD,BRIGHAM HILL ROAD,139,01519,42.21355662889804,-71.71521927977103,250277382012037
F_604359_2904244,0  FOREST LANE,FOREST LANE,0,01519,42.217232319041365,-71.69125459019726,250277382022025
F_603540_2905392,98  WORCESTER STREET,WORCESTER STREET,98,01519,42.22037749509007,-71.69428767575181,250277382022004
F_602339_2905702,1  SNOW ROAD,SNOW ROAD,1,01519,42.22122058073396,-71.69872419053993,250277382022009
F_601170_2906237,120  WORCESTER STREET,WORCESTER STREET,120,01519,42.22268113133644,-71.70304466007751,250277382022011
F_614409_2908200,81  ADAMS ROAD,ADAMS ROAD,81,01519,42.22814391917627,-71.65418022599567,250277382021014
F_603782_2908258,22  GREANY DRIVE,GREANY DRIVE,22,01519,42.22824365807462,-71.6934182536521,250277613002053
F_603010_2908243,22  GREANY DRIVE,GREANY DRIVE,22,01519,42.22819765702412,-71.69626854747332,250277613002053
F_613911_2908622,81 REAR ADAMS ROAD,ADAMS ROAD,81 REAR,01519,42.22929945385571,-71.65602181824902,250277382021005
F_601326_2908893,77 REAR SNOW ROAD,SNOW ROAD,77 REAR,01519,42.22997053264148,-71.70249199770466,250277613003000
F_601422_2908239,41  SNOW ROAD,SNOW ROAD,41,01519,42.22817650364986,-71.70213180904695,250277613003000
F_614022_2908997,81  ADAMS ROAD,ADAMS ROAD,81,01519,42.23032905595773,-71.65561449676875,250277382021005
F_613097_2909009,94 REAR OLD WESTBORO ROAD,OLD WESTBORO ROAD,94 REAR,01519,42.23035730367798,-71.65903003119759,250277382021005
F_601608_2909312,34  EAST STREET,EAST STREET,34,01519,42.23112215059393,-71.70145440741325,250277613002057
F_601243_2909382,30  EAST STREET,EAST STREET,30,01519,42.23131186531575,-71.70280275618047,250277613002058
F_604365_2911615,33  INSTITUTE ROAD,INSTITUTE ROAD,33,01519,42.23745926949904,-71.69129346650894,250277613002032
F_596307_2912881,50  CREEPER HILL ROAD,CREEPER HILL ROAD,50,01519,42.24087986788509,-71.72106208315974,250277613001032
F_603313_2913415,122  WESTBORO ROAD,WESTBORO ROAD,122,01519,42.242392134741046,-71.69519349542209,250277613002032
F_602540_2913474,120  WESTBORO ROAD,WESTBORO ROAD,120,01519,42.2425491476692,-71.69804875186968,250277613002032
F_604829_2913861,136  WESTBORO ROAD,WESTBORO ROAD,136,01519,42.24362539257178,-71.6895984467565,250277613002023
F_605811_2915065,1  PINE STREET,PINE STREET,1,01519,42.24693523594986,-71.68598146626385,250277613002005
F_606241_2916518,103  PINE STREET,PINE STREET,103,01519,42.25092498983562,-71.68440492955351,250277613002004
F_607399_2916336,100  PINE STREET,PINE STREET,100,01519,42.25043235219286,-71.6801263459385,250277613002000
F_603410_2899822,48  MILLBURY STREET,MILLBURY STREET,48,01519,42.20509189030128,-71.69472066575639,250277382012028
F_594789_2902611,21 REAR ROSE LANE,ROSE LANE,21 REAR,01519,42.21268684149505,-71.72656729585658,250277382012002
F_598332_2909226,184  WORCESTER STREET,WORCESTER STREET,184,01519,42.23086428684697,-71.7135499848835,250277613001020
F_604663_2912332,42  INSTITUTE ROAD,INSTITUTE ROAD,42,01519,42.239428628746566,-71.69019891831637,250277613002021
M_116419_886038,21 SHERWOOD DR,SHERWOOD DR,21,01033,42.22033249157287,-72.51237318101259,250158209004041
M_116460_886044,19 SHERWOOD DR,SHERWOOD DR,19,01033,42.22039088593105,-72.51187747805176,250158209004041
M_116558_886065,15 SHERWOOD DR,SHERWOOD DR,15,01033,42.22059039685,-72.51069357898905,250158209004041
M_116431_886102,17 ACREBROOK DR,ACREBROOK DR,17,01033,42.220909927479056,-72.51223704401812,250158209004040
M_116348_886094,18 ACREBROOK DR,ACREBROOK DR,18,01033,42.22082903618343,-72.51324114342881,250158209004039
M_117185_886123,230 EAST ST,EAST ST,230,01033,42.22117917185011,-72.50310798822265,250158209004041
M_116433_886140,15 ACREBROOK DR,ACREBROOK DR,15,01033,42.22125223241738,-72.51221828303636,250158209004040
M_116364_886143,16 ACREBROOK DR,ACREBROOK DR,16,01033,42.22127186477973,-72.5130544092674,250158209004039
M_117101_886159,224 EAST ST,EAST ST,224,01033,42.22149436055572,-72.50413048886423,250158209004041
M_116496_886167,12 SHERWOOD DR,SHERWOOD DR,12,01033,42.22150202550673,-72.5114591352519,250158209004040
M_117263_886154,233 EAST ST,EAST ST,233,01033,42.22146650112266,-72.50216770112489,250158209004023
M_116358_886187,14 ACREBROOK DR,ACREBROOK DR,14,01033,42.22166732879467,-72.51313340847743,250158209004039
M_116571_886205,9 SHERWOOD DR,SHERWOOD DR,9,01033,42.221852120026725,-72.5105562205948,250158209004041
M_116497_886209,10 SHERWOOD DR,SHERWOOD DR,10,01033,42.22188023313021,-72.5114530560408,250158209004040
M_116435_886220,11 ACREBROOK DR,ACREBROOK DR,11,01033,42.2219726381521,-72.51220555870482,250158209004040
M_116970_886230,214 EAST ST,EAST ST,214,01033,42.22211963669073,-72.50572724508214,250158209004041
M_116498_886250,8 SHERWOOD DR,SHERWOOD DR,8,01033,42.22224943832672,-72.51144683312882,250158209004040
M_116436_886259,9 ACREBROOK DR,ACREBROOK DR,9,01033,42.222323838584046,-72.51219905269527,250158209004040
M_116919_886141,220 EAST ST,EAST ST,220,01033,42.22131300694416,-72.50633222321328,250158209004041
M_116861_886263,206 EAST ST,EAST ST,206,01033,42.22240513787595,-72.50705213872187,250158209004041
M_116719_886206,190 EAST ST,EAST ST,190,01033,42.22187689443489,-72.5087638413064,250158209004041
M_116741_886250,188 EAST ST,EAST ST,188,01033,42.22227534233605,-72.50850368636183,250158209004041
M_116956_886317,207 EAST ST,EAST ST,207,01033,42.22290135985422,-72.50590923603752,250158209004023
M_117430_886263,233R EAST ST,EAST ST,233R,01033,42.22246541128517,-72.50016054796684,250158209004023
M_116346_886366,6 ACREBROOK DR,ACREBROOK DR,6,01033,42.22327747473492,-72.51330450408034,250158209004039
M_116627_886358,182 EAST ST,EAST ST,182,01033,42.22323545863221,-72.50989991032266,250158209004041
M_116580_886375,1 SHERWOOD DR,SHERWOOD DR,1,01033,42.223383488157374,-72.51047160899542,250158209004041
M_116492_886394,176 EAST ST,EAST ST,176,01033,42.22354514329687,-72.51154018777844,250158209004040
M_116676_886437,189 EAST ST,EAST ST,189,01033,42.223951869839546,-72.5093177500516,250158209004023
M_116460_886488,175 EAST ST,EAST ST,175,01033,42.22438795147272,-72.51194127833705,250158209004023
M_117323_886550,229R EAST ST,EAST ST,229R,01033,42.22503780036966,-72.5014973231511,250158209004023
M_118910_887752,CHICOPEE ST,CHICOPEE ST,nan,01033,42.23602485817448,-72.48244281542817,250158209003029
M_118926_887372,TURKEY HILL,HILL,TURKEY,01033,42.23260559873992,-72.48219597322328,250158209003029
M_119821_887138,TURKEY HILL,TURKEY HILL,nan,01033,42.23059130055228,-72.47132188127928,250158209003036
M_118992_887538,CARVER ST,CARVER ST,nan,01033,42.23410683971159,-72.48141960476715,250158209003029
M_113904_888857,74 PLEASANT ST,PLEASANT ST,74,01033,42.2454373164464,-72.54325068119758,250158209004004
M_113883_888874,PLEASANT ST,PLEASANT ST,nan,01033,42.2455880432644,-72.54350763901458,250158209004004
M_113424_889132,38 PLEASANT ST,PLEASANT ST,38,01033,42.24785995100865,-72.54910738152562,250158209004005
M_115180_889192,FERRY HILL RD,FERRY HILL RD,nan,01033,42.24859256223568,-72.52783943313902,250158209004001
M_115536_889882,194 WEST STATE ST,WEST STATE ST,194,01033,42.25484271398851,-72.52362621787589,250158209004001
M_116233_890224,250 STATE ST,STATE ST,250,01033,42.25799650763237,-72.5152293480923,250158209002011
M_117565_891388,GREEN MEADOW LN,GREEN MEADOW LN,nan,01033,42.26861683424838,-72.49925268242592,250158209003010
M_117317_891367,GREEN MEADOW LN,GREEN MEADOW LN,nan,01033,42.26840158977845,-72.50225559779545,250158209002006
M_117450_893861,BATCHELOR ST NORTH,BATCHELOR ST NORTH,nan,01033,42.29086742287364,-72.50099833162835,250158209001001
M_114422_893750,AMHERST RD,AMHERST RD,nan,01033,42.28954239225317,-72.53769581775656,250158209001007
M_116519_893686,BATCHELOR ST,BATCHELOR ST,nan,01033,42.28919310679024,-72.51226136762978,250158209001001
M_116041_893424,BATCHELOR ST,BATCHELOR ST,nan,01033,42.28678329358767,-72.51801896420186,250158209001001
M_117004_893850,SPROUT HILL,HILL,SPROUT,01033,42.29072114962548,-72.50640443727885,250158209001001
M_118434_892566,BATCHELOR ST,BATCHELOR ST,nan,01033,42.27931276016732,-72.48888541170017,250158209003010
M_117603_892797,RIDGE PATH,RIDGE PATH,nan,01033,42.28130511891167,-72.49899212656956,250158209001001
M_119866_892774,BATCHELOR ST,BATCHELOR ST,nan,01033,42.28133340045755,-72.47155444569111,250158209001000
M_120642_893020,BATCHELOR ST,BATCHELOR ST,nan,01033,42.28362716977792,-72.46218057150115,250158209001000
M_118032_893266,BATCHELOR ST,BATCHELOR ST,nan,01033,42.28557232198809,-72.49385759782491,250158209001001
M_114385_893366,AMHERST RD,AMHERST RD,nan,01033,42.28608147347465,-72.53808775945095,250158209001009
M_114917_893423,AMHERST ST,AMHERST ST,nan,01033,42.28665271091667,-72.53164621263561,250158209001009
M_114614_893212,AMHERST ST,AMHERST ST,nan,01033,42.284720182359465,-72.53528872883558,250158209001009
M_114833_893529,AMHERST ST,AMHERST ST,nan,01033,42.28759779969472,-72.53268018781401,250158209001009
M_115416_893342,BATCHELOR ST,BATCHELOR ST,nan,01033,42.28597770201691,-72.52558452697617,250158209001001
M_117952_893489,BATCHELOR ST,BATCHELOR ST,nan,01033,42.2875714412594,-72.49485904096501,250158209001001
M_117799_893717,HARRIS ST WEST,HARRIS ST WEST,nan,01033,42.289607886084,-72.49674635227943,250158209001001
M_118438_893711,BATCHELOR ST,BATCHELOR ST,nan,01033,42.28962083585289,-72.48899787049494,250158209001001
M_114855_893647,321 AMHERST ST,AMHERST ST,321,01033,42.288662464037934,-72.53243077363229,250158209001009
M_114729_893554,AMHERST RD,AMHERST RD,nan,01033,42.28781151369174,-72.53394477573997,250158209001009
M_115456_893671,BATCHELOR ST,BATCHELOR ST,nan,01033,42.28894377804769,-72.5251475139879,250158209001001
M_118758_893823,HARRIS ST,HARRIS ST,nan,01033,42.29066243307248,-72.48513367080193,250158209001001
M_118957_895452,HARRIS ST,HARRIS ST,nan,01033,42.30534785295357,-72.48294845154876,250158209001001
M_117233_895350,AMHERST RD,AMHERST RD,nan,01033,42.30424886036717,-72.50384190785078,250158209001001
M_117158_895357,AMHERST RD,AMHERST RD,nan,01033,42.3043039262395,-72.50475246341,250158209001001
M_117463_895401,AMHERST RD EAST,AMHERST RD EAST,nan,01033,42.30473231120299,-72.50105986204537,250158209001001
M_117088_895375,AMHERST RD,AMHERST RD,nan,01033,42.30445854050895,-72.50560395624225,250158209001001
M_117068_895044,HARRIS ST,HARRIS ST,nan,01033,42.30147666716437,-72.50579916823158,250158209001001
M_119434_895535,HARRIS ST,HARRIS ST,nan,01033,42.30614438514391,-72.4771750886392,250158209001001
M_119318_895152,HARRIS ST,HARRIS ST,nan,01033,42.30268453259488,-72.47852862506458,250158209001001
M_117438_893944,BATCHELOR ST NORTH,BATCHELOR ST NORTH,nan,01033,42.29161334537906,-72.5011556424823,250158209001001
M_118619_893990,HARRIS ST,HARRIS ST,nan,01033,42.29215135384912,-72.48684245061543,250158209001001
M_117726_893784,SPROUT HILL,SPROUT HILL,nan,01033,42.2902033570031,-72.49764095103482,250158209001001
M_117375_894012,BATCHELOR ST NORTH,BATCHELOR ST NORTH,nan,01033,42.29221884157688,-72.50192920240079,250158209001001
M_118170_893455,BATCHELOR ST,BATCHELOR ST,nan,01033,42.287288223140905,-72.49221116244904,250158209001001
M_118621_894030,HARRIS ST,HARRIS ST,nan,01033,42.29251165455726,-72.48682381184081,250158209001001
M_119156_894084,HARRIS ST,HARRIS ST,nan,01033,42.2930533199724,-72.48034435581783,250158209001001
M_118281_894093,HARRIS ST,HARRIS ST,nan,01033,42.29304331271174,-72.49095524889682,250158209001001
M_115282_894141,AMHERST ST,AMHERST ST,nan,01033,42.29315599477869,-72.52732580344654,250158209001001
M_115708_894018,BATCHELOR ST,BATCHELOR ST,nan,01033,42.292094791458354,-72.52214257247854,250158209001001
M_115382_893981,BATCHELOR ST,BATCHELOR ST,nan,01033,42.291726469722896,-72.52608993947594,250158209001001
M_116849_893974,SPROUT HILL,HILL,SPROUT,01033,42.29182095313103,-72.50830155663333,250158209001001
M_118949_894028,HARRIS ST,HARRIS ST,nan,01033,42.29252774425019,-72.48284646826075,250158209001001
M_116385_894055,BATCHELOR ST,BATCHELOR ST,nan,01033,42.29250061960888,-72.51393923737082,250158209001001
M_115348_894210,AMHERST RD,AMHERST RD,nan,01033,42.2937843042356,-72.52653560668038,250158209001001
M_116664_893980,SPROUT HILL,SPROUT HILL,nan,01033,42.291855256704615,-72.51054554677741,250158209001001
M_118486_894159,HARRIS ST WEST,HARRIS ST WEST,nan,01033,42.293658879376245,-72.48847883941727,250158209001001
M_118311_894194,HARRIS ST,HARRIS ST,nan,01033,42.29395568251015,-72.49060571380892,250158209001001
M_116593_894115,BATCHELOR ST,BATCHELOR ST,nan,01033,42.29306298834258,-72.51142583409944,250158209001001
M_115873_894193,BATCHELOR ST,BATCHELOR ST,nan,01033,42.29368797163232,-72.52016731828168,250158209001001
M_114416_894255,AMHERST RD,AMHERST RD,nan,01033,42.29408786978616,-72.53784306917537,250158209001007
M_117678_894059,SPROUT HILL,SPROUT HILL,nan,01033,42.29267393304575,-72.49826196275166,250158209001001
M_116023_894113,BATCHELOR ST,BATCHELOR ST,nan,01033,42.292983926984576,-72.51833693245831,250158209001001
M_115538_894278,BATCHELOR ST NORTH,BATCHELOR ST NORTH,nan,01033,42.29441702078824,-72.52424168782879,250158209001001
M_120580_894328,HARRIS ST EAST,HARRIS ST EAST,nan,01033,42.29539593646487,-72.46311129193813,250158209001000
M_116754_894320,SPROUT HILL,HILL,SPROUT,01033,42.29492562606752,-72.50950308783821,250158209001001
M_116219_894219,BATCHELOR ST NORTH,BATCHELOR ST NORTH,nan,01033,42.29395920965409,-72.51597569707828,250158209001001
M_118950_894360,HARRIS ST,HARRIS ST,nan,01033,42.29551661543938,-72.4828807324074,250158209001001
M_118783_894373,HARRIS ST,HARRIS ST,nan,01033,42.29561630303671,-72.48490755586708,250158209001001
M_117984_894250,BATCHELOR ST,BATCHELOR ST,nan,01033,42.2944255532049,-72.49457865484997,250158209001001
M_117333_894262,AMHERST RD EAST,AMHERST RD EAST,nan,01033,42.294464971134126,-72.50247408477574,250158209001001
M_117564_894446,BATCHELOR ST,BATCHELOR ST,nan,01033,42.29614579966777,-72.4996992351119,250158209001001
M_118539_894399,HARRIS ST WEST,HARRIS ST WEST,nan,01033,42.29582496010851,-72.48786989813327,250158209001001
M_115016_894556,366 AMHERST ST,AMHERST ST,366,01033,42.296863040867386,-72.53061192008843,250158209001001
M_119361_894509,HARRIS ST,HARRIS ST,nan,01033,42.29690048910794,-72.47791775242128,250158209001001
M_114924_894632,AMHERST ST,AMHERST ST,nan,01033,42.29753719854492,-72.53173865503722,250158209001007
M_116309_894607,AMHERST ROAD EAST,AMHERST ROAD EAST,nan,01033,42.29746173573926,-72.5149403929388,250158209001001
M_116471_894650,AMHERST RD EAST,AMHERST RD EAST,nan,01033,42.297866170438645,-72.5129821585703,250158209001001
M_117556_894645,HARRIS ST,HARRIS ST,nan,01033,42.29793641027784,-72.49982452861407,250158209001001
M_116657_894594,HILLIARD KNOB,HILLIARD KNOB,nan,01033,42.297381907644784,-72.51071864311382,250158209001001
M_118784_894660,HARRIS ST,HARRIS ST,nan,01033,42.298200068182304,-72.48493561750902,250158209001001
M_116816_894642,BATCHELOR ST,BATCHELOR ST,nan,01033,42.29783096233997,-72.50879747985603,250158209001001
M_115111_894605,364 AMHERST ST,AMHERST ST,364,01033,42.297314479089856,-72.52946712639645,250158209001001
M_120478_894616,HARRIS ST,HARRIS ST,nan,01033,42.29797823192948,-72.46438760729974,250158209001000
M_115738_894530,AMHERST ST,AMHERST ST,nan,01033,42.29670718583564,-72.5218531971746,250158209001001
M_115653_894725,AMHERST RD,AMHERST RD,nan,01033,42.298453453514114,-72.52291225968803,250158209001001
M_118072_894604,BATCHELOR ST,BATCHELOR ST,nan,01033,42.29762159838079,-72.49356160927361,250158209001001
M_116404_894832,HILLIARD KNOB,HILLIARD KNOB,nan,01033,42.29949741634717,-72.5138208449116,250158209001001
M_116565_894880,BATCHELOR ST,BATCHELOR ST,nan,01033,42.29994673632162,-72.51187538632712,250158209001001
M_119354_894822,HARRIS ST WEST,HARRIS ST WEST,nan,01033,42.29971748946938,-72.47804615715488,250158209001001
M_116723_894931,HILLIARD KNOB,HILLIARD KNOB,nan,01033,42.300422710323936,-72.50996671089987,250158209001001
M_116223_894898,AMHERST RD EAST,AMHERST RD EAST,nan,01033,42.30007217661363,-72.51602527141631,250158209001001
M_117737_894967,HILLIARD KNOB,HILLIARD KNOB,nan,01033,42.30085422519204,-72.49767535781908,250158209001001
M_117888_895200,HILLIARD KNOB,HILLIARD KNOB,nan,01033,42.30296764257228,-72.49587720649372,250158209001001
M_116080_895184,AMHERST RD EAST,AMHERST RD EAST,nan,01033,42.30263147342638,-72.51780075962013,250158209001001
M_117726_895193,HARRIS ST,HARRIS ST,nan,01033,42.30288758181437,-72.49784081539586,250158209001001
M_118328_895076,HARRIS ST,HARRIS ST,nan,01033,42.301897484081,-72.49052378124965,250158209001001
M_118696_895328,HARRIS ST,HARRIS ST,nan,01033,42.30420444777986,-72.4860963814417,250158209001001
M_117656_895324,HARRIS ST,HARRIS ST,nan,01033,42.30405950437747,-72.49870831835496,250158209001001
M_119011_895329,HARRIS ST,HARRIS ST,nan,01033,42.30424617144184,-72.48227637887135,250158209001001
M_120396_895413,HARRIS ST,HARRIS ST,nan,01033,42.305144729045786,-72.46549136310271,250158209001000
M_114985_894670,AMHERST ST,AMHERST ST,nan,01033,42.29788592413918,-72.53100453436144,250158209001002
M_115267_894313,AMHERST RD EAST,AMHERST RD EAST,nan,01033,42.29470275624652,-72.52753280715491,250158209001001
M_115839_894710,BATCHELOR ST,BATCHELOR ST,nan,01033,42.29833847895606,-72.5206545967828,250158209001001
M_116030_894777,AMHERST RD EAST,AMHERST RD EAST,nan,01033,42.29896218271838,-72.51834818303546,250158209001001
M_114859_893913,AMHERST RD,AMHERST RD,nan,01033,42.29105750038189,-72.53242131438945,250158209001001
M_109921_925651,317 319 DEERFIELD ST,DEERFIELD,317,nan,42.57620537513832,-72.59724368752917,250110414002053
M_109887_925184,384 REAR DEERFIELD ST,DEERFIELD,384,nan,42.57199771634642,-72.59758459751976,250110414002061
M_110132_925379,97 BRIAR WAY,BRIAR,97,nan,42.57378136041842,-72.59463128212124,250110414002052
M_109926_925673,315 DEERFIELD ST,DEERFIELD,315,nan,42.57640398797353,-72.59718623663484,250110414002053
M_111371_925881,156 MONTAGUE CITY RD,MONTAGUE CITY,156,nan,42.578442295014185,-72.57961873682639,250110411004021
